{
  "221 W Heron St, Aberdeen, WA": {
    "latitude": 46.9712194,
    "longitude": -123.8196548,
    "formatted_address": "221 W Heron St, Aberdeen, WA 98520, USA"
  },
  "14168 US Hwy 395, Adelanto, CA": {
    "latitude": 34.5827699,
    "longitude": -117.409215,
    "formatted_address": "Adelanto, CA, USA"
  },
  "1990 14th Ave SE, Albany, OR": {
    "latitude": 44.6272294,
    "longitude": -123.0795844,
    "formatted_address": "1990 14th Ave SE, Albany, OR 97322, USA"
  },
  "2500 Santiam Highway Southeast, Albany, OR": {
    "latitude": 44.6320862,
    "longitude": -123.0748201,
    "formatted_address": "2500 Santiam Hwy SE, Albany, OR 97322, USA"
  },
  "20535 SW TV Highway, Aloha, OR": {
    "latitude": 45.4967624,
    "longitude": -122.8881898,
    "formatted_address": "Safeway, 20535 SW Tualatin Valley Hwy, Aloha, OR 97003, USA"
  },
  "6055 SW 185th Ave, Aloha, OR": {
    "latitude": 45.4755939,
    "longitude": -122.8690208,
    "formatted_address": "6055 SW 185th Ave, Beaverton, OR 97007, USA"
  },
  "8770 Baseline Rd, Alta Loma, CA": {
    "latitude": 34.1224102,
    "longitude": -117.6145124,
    "formatted_address": "8770 Base Line Rd, Alta Loma, CA 91701, USA"
  },
  "911 11Th Street, Anacortes, WA": {
    "latitude": 48.5122831,
    "longitude": -122.6117014,
    "formatted_address": "911 11th St, Anacortes, WA 98221, USA"
  },
  "20801 Bear Valley Road, Apple Valley, CA": {
    "latitude": 34.4701909,
    "longitude": -117.2090005,
    "formatted_address": "20801 Bear Valley Rd, Apple Valley, CA 92308, USA"
  },
  "20261 Hwy 18, Apple Valley, CA": {
    "latitude": 34.5251742,
    "longitude": -117.2203933,
    "formatted_address": "20261 CA-18, Apple Valley, CA 92307, USA"
  },
  "21602 Bear Valley Rd, Apple Valley, CA": {
    "latitude": 34.47286,
    "longitude": -117.1921857,
    "formatted_address": "21602 Bear Valley Rd, Apple Valley, CA 92308, USA"
  },
  "12253 Apple Valley Rd, Apple Valley, CA": {
    "latitude": 34.4740919,
    "longitude": -117.240513,
    "formatted_address": "12253 Apple Valley Rd, Apple Valley, CA 92308, USA"
  },
  "20500 Olympic Place, Arlington, WA": {
    "latitude": 48.1824504,
    "longitude": -122.1279697,
    "formatted_address": "20500 Olympic Pl, Arlington, WA 98223, USA"
  },
  "3532 172Nd Street Ne, Arlington, WA": {
    "latitude": 48.15159420000001,
    "longitude": -122.1793292,
    "formatted_address": "3532 172nd St NE, Arlington, WA 98223, USA"
  },
  "585 Siskiyou Blvd, Ashland, OR": {
    "latitude": 42.1935989,
    "longitude": -122.7062907,
    "formatted_address": "585 Siskiyou Blvd, Ashland, OR 97520, USA"
  },
  "2301 Ashland St, Ashland, OR": {
    "latitude": 42.1867791,
    "longitude": -122.6709074,
    "formatted_address": "2301 Ashland St, Ashland, OR 97520, USA"
  },
  "3250 Leif Erikson Dr, Astoria, OR": {
    "latitude": 46.19446,
    "longitude": -123.7881245,
    "formatted_address": "Lief Erikson Dr, Astoria, OR 97103, USA"
  },
  "1702 Auburn Way N, Auburn, WA": {
    "latitude": 47.3237548,
    "longitude": -122.2204029,
    "formatted_address": "1702 Auburn Wy N, Auburn, WA 98002, USA"
  },
  "1406 Lake Tapps Pkwy E, Auburn, WA": {
    "latitude": 47.2429989,
    "longitude": -122.2096034,
    "formatted_address": "1406 Lake Tapps Pkwy SE, Auburn, WA 98092, USA"
  },
  "4010 A Street, Auburn, WA": {
    "latitude": 47.2728184,
    "longitude": -122.2269136,
    "formatted_address": "4010 A St SE, Auburn, WA 98002, USA"
  },
  "101 Auburn Way S, Auburn, WA": {
    "latitude": 47.30613659999999,
    "longitude": -122.2272088,
    "formatted_address": "101 Auburn Way S, Auburn, WA 98002, USA"
  },
  "801 Auburn Way North, Auburn, WA": {
    "latitude": 47.3153343,
    "longitude": -122.2263852,
    "formatted_address": "801 Auburn Wy N, Auburn, WA 98002, USA"
  },
  "253 High School Rd Ne, Bainbridge Island, WA": {
    "latitude": 47.63511889999999,
    "longitude": -122.5197027,
    "formatted_address": "253 High School Rd NE, Bainbridge Island, WA 98110, USA"
  },
  "300 S Highland Springs Ave #7, Banning, CA": {
    "latitude": 33.9241465,
    "longitude": -116.9463542,
    "formatted_address": "300 S Highland Springs Ave # 7, Banning, CA 92220, USA"
  },
  "580 E VIRGINIA WAY, Barstow, CA": {
    "latitude": 34.8869621,
    "longitude": -117.0182365,
    "formatted_address": "580 E Virginia Way, Barstow, CA 92311, USA"
  },
  "957 ARMORY RD, Barstow, CA": {
    "latitude": 34.8851732,
    "longitude": -117.0131766,
    "formatted_address": "957 Armory Rd, Barstow, CA 92311, USA"
  },
  "2108 W Main Street, Battle Ground, WA": {
    "latitude": 45.7813188,
    "longitude": -122.5608519,
    "formatted_address": "2108 W Main St, Battle Ground, WA 98604, USA"
  },
  "904 W Main St, Battle Ground, WA": {
    "latitude": 45.7817691,
    "longitude": -122.5467575,
    "formatted_address": "904 W Main St, Battle Ground, WA 98604, USA"
  },
  "401 Northwest 12Th Avenue, Battle Ground, WA": {
    "latitude": 45.7842837,
    "longitude": -122.5489717,
    "formatted_address": "401 NW 12th Ave, Battle Ground, WA 98604, USA"
  },
  "1691 E 6th St, Beaumont, CA": {
    "latitude": 33.9289152,
    "longitude": -116.9487362,
    "formatted_address": "1691 E 6th St, Beaumont, CA 92223, USA"
  },
  "1661 E 6th St, Beaumont, CA": {
    "latitude": 33.9283801,
    "longitude": -116.9496507,
    "formatted_address": "1661 E 6th St, Beaumont, CA 92223, USA"
  },
  "1430 Beaumont Ave., Beaumont, CA": {
    "latitude": 33.9482109,
    "longitude": -116.9756636,
    "formatted_address": "1430 Beaumont Ave, Beaumont, CA 92223, USA"
  },
  "6194 SW Murray Blvd, Beaverton, OR": {
    "latitude": 45.47511160000001,
    "longitude": -122.8251743,
    "formatted_address": "6194 SW Murray Blvd, Beaverton, OR 97008, USA"
  },
  "14555 SW Teal Blvd, Beaverton, OR": {
    "latitude": 45.4415082,
    "longitude": -122.8289788,
    "formatted_address": "Safeway 2631, 14555 SW Teal Blvd, Beaverton, OR 97007, USA"
  },
  "15995 Southwest Walker Road, Beaverton, OR": {
    "latitude": 45.5191622,
    "longitude": -122.8400721,
    "formatted_address": "15995 SW Walker Rd, Beaverton, OR 97006, USA"
  },
  "11425 SW Beaverton Hillsdale Hwy, Beaverton, OR": {
    "latitude": 45.4876176,
    "longitude": -122.79445,
    "formatted_address": "11425 SW Beaverton Hillsdale Hwy, Beaverton, OR 97005, USA"
  },
  "201 NE State Route 300, Belfair, WA": {
    "latitude": 47.4531037,
    "longitude": -122.8287165,
    "formatted_address": "201 WA-300, Belfair, WA 98528, USA"
  },
  "23961 NE State Route 3, Belfair, WA": {
    "latitude": 47.4539823,
    "longitude": -122.822685,
    "formatted_address": "23961 WA-3, Belfair, WA 98528, USA"
  },
  "2636 Bellevue Way Ne, Bellevue, WA": {
    "latitude": 47.6347986,
    "longitude": -122.200724,
    "formatted_address": "2636 Bellevue Way NE, Bellevue, WA 98004, USA"
  },
  "3550 128Th Avenue Se, Bellevue, WA": {
    "latitude": 47.5786029,
    "longitude": -122.1679376,
    "formatted_address": "3550 128th Ave SE, Bellevue, WA 98006, USA"
  },
  "15600 NE 8TH Street, Bellevue, WA": {
    "latitude": 47.6174142,
    "longitude": -122.1284528,
    "formatted_address": "15600 NE 8th St, Bellevue, WA 98008, USA"
  },
  "1510 145Th Place Se, Bellevue, WA": {
    "latitude": 47.5969425,
    "longitude": -122.1484573,
    "formatted_address": "1510 145th Pl SE, Bellevue, WA 98007, USA"
  },
  "15100 S.E. 38th St, Bellevue, WA": {
    "latitude": 47.5765395,
    "longitude": -122.1371838,
    "formatted_address": "15100 SE 38th St, Bellevue, WA 98006, USA"
  },
  "1645 140Th Avenue Ne, Bellevue, WA": {
    "latitude": 47.62467669999999,
    "longitude": -122.1541507,
    "formatted_address": "1645 140th Ave NE, Bellevue, WA 98005, USA"
  },
  "300 Bellevue Way Ne, Bellevue, WA": {
    "latitude": 47.6129263,
    "longitude": -122.2010975,
    "formatted_address": "300 Bellevue Way NE, Bellevue, WA 98004, USA"
  },
  "2041 148TH AVE NE, Bellevue, WA": {
    "latitude": 47.6288614,
    "longitude": -122.1445578,
    "formatted_address": "2041 148th Ave NE, Bellevue, WA 98007, USA"
  },
  "10116 NE 8Th Street, Bellevue, WA": {
    "latitude": 47.6178935,
    "longitude": -122.2055307,
    "formatted_address": "Parking lot, 10116 NE 8th St, Bellevue, WA 98004, USA"
  },
  "2900 Woburn St, Bellingham, WA": {
    "latitude": 48.7689899,
    "longitude": -122.4445853,
    "formatted_address": "2900 Woburn St, Bellingham, WA 98226, USA"
  },
  "2814 Meridian St, Bellingham, WA": {
    "latitude": 48.7677706,
    "longitude": -122.484372,
    "formatted_address": "2814 Meridian St, Bellingham, WA 98225, USA"
  },
  "1401 12th St, Bellingham, WA": {
    "latitude": 48.719235,
    "longitude": -122.5014499,
    "formatted_address": "1401 12th St, Bellingham, WA 98225, USA"
  },
  "210 36th St, Bellingham, WA": {
    "latitude": 48.7321393,
    "longitude": -122.4713893,
    "formatted_address": "210 36th St, Bellingham, WA 98225, USA"
  },
  "1275 E Sunset Dr, Bellingham, WA": {
    "latitude": 48.7745134,
    "longitude": -122.4585548,
    "formatted_address": "1275 E Sunset Dr, Bellingham, WA 98226, USA"
  },
  "1225 West Bakerview Road, Bellingham, WA": {
    "latitude": 48.7886584,
    "longitude": -122.512171,
    "formatted_address": "1225 W Bakerview Rd, Bellingham, WA 98226, USA"
  },
  "800 Lakeway Dr, Bellingham, WA": {
    "latitude": 48.7435651,
    "longitude": -122.4640379,
    "formatted_address": "800 Lakeway Dr, Bellingham, WA 98229, USA"
  },
  "1800 N.E. 3rd street, Bend, OR": {
    "latitude": 44.06825329999999,
    "longitude": -121.3014823,
    "formatted_address": "1800 NE 3rd St, Bend, OR 97701, USA"
  },
  "61155 S Hwy 97, Bend, OR": {
    "latitude": 44.0210024,
    "longitude": -121.3180808,
    "formatted_address": "61155 S Hwy 97, Bend, OR 97702, USA"
  },
  "642 NE 3rd Street, Bend, OR": {
    "latitude": 44.0564918,
    "longitude": -121.3013044,
    "formatted_address": "642 NE 3rd St, Bend, OR 97701, USA"
  },
  "320 SW Century Dr, Bend, OR": {
    "latitude": 44.0470113,
    "longitude": -121.3298596,
    "formatted_address": "320 SW Century Dr, Bend, OR 97702, USA"
  },
  "61535 S Hwy 97, Bend, OR": {
    "latitude": 44.03354,
    "longitude": -121.3083345,
    "formatted_address": "61535 S Hwy 97, Bend, OR 97702, USA"
  },
  "2650 NE Hwy 20, Bend, OR": {
    "latitude": 44.0578711,
    "longitude": -121.2646015,
    "formatted_address": "2650 NE Hwy 20, Bend, OR 97701, USA"
  },
  "42150 Washington Street, BERMUDA DUNES, CA": {
    "latitude": 33.7420996,
    "longitude": -116.3024338,
    "formatted_address": "42150 Washington St, Bermuda Dunes, CA 92203, USA"
  },
  "42170 Big Bear Boulevard, Big Bear Lake, CA": {
    "latitude": 34.2524179,
    "longitude": -116.8851669,
    "formatted_address": "42170 Big Bear Blvd, Big Bear Lake, CA 92315, USA"
  },
  "42171 Big Bear Blvd, Big Bear Lake, CA": {
    "latitude": 34.2522128,
    "longitude": -116.8837881,
    "formatted_address": "42171 1/2 A, 42171 Big Bear Blvd, Big Bear Lake, CA 92315, USA"
  },
  "1045 BLOOMINGTON AVE, Bloomington, CA": {
    "latitude": 34.0744852,
    "longitude": -117.3894949,
    "formatted_address": "1045 Bloomington Ave, Bloomington, CA 92316, USA"
  },
  "840 E HOBSONWAY, Blythe, CA": {
    "latitude": 33.6092106,
    "longitude": -114.5873034,
    "formatted_address": "840 E Hobsonway, Blythe, CA 92225, USA"
  },
  "20904 Highway 410, Bonney Lake, WA": {
    "latitude": 47.1671796,
    "longitude": -122.1510847,
    "formatted_address": "20904 WA-410, Bonney Lake, WA 98391, USA"
  },
  "3322 132nd St S.E., Bothell, WA": {
    "latitude": 47.8766073,
    "longitude": -122.1871492,
    "formatted_address": "3322 132nd St SE, Mill Creek, WA 98012, USA"
  },
  "18921 Bothell Way NE, Bothell, WA": {
    "latitude": 47.7652069,
    "longitude": -122.2116856,
    "formatted_address": "18921 Bothell Way NE, Bothell, WA 98011, USA"
  },
  "22833 Bothell Everett Hwy, Bothell, WA": {
    "latitude": 47.7899121,
    "longitude": -122.2152749,
    "formatted_address": "22833 Bothell Everett Hwy, Bothell, WA 98021, USA"
  },
  "20711 Bothell Everett Hwy, Bothell, WA": {
    "latitude": 47.81166959999999,
    "longitude": -122.2056895,
    "formatted_address": "20711 Bothell Everett Hwy, Bothell, WA 98012, USA"
  },
  "24040 Bothell Everett Hwy, Bothell, WA": {
    "latitude": 47.7787443,
    "longitude": -122.2208158,
    "formatted_address": "24040 Bothell Everett Hwy, Bothell, WA 98021, USA"
  },
  "21045 Bothell Everett Hwy, Bothell, WA": {
    "latitude": 47.80744019999999,
    "longitude": -122.2059515,
    "formatted_address": "21045 Bothell Everett Hwy, Bothell, WA 98021, USA"
  },
  "900 N Callow Ave, Bremerton, WA": {
    "latitude": 47.56977070000001,
    "longitude": -122.652778,
    "formatted_address": "900 N Callow Ave, Bremerton, WA 98312, USA"
  },
  "1401 N.E. Mcwilliams, Bremerton, WA": {
    "latitude": 47.6207115,
    "longitude": -122.6308315,
    "formatted_address": "1401 NE McWilliams Rd, Bremerton, WA 98311, USA"
  },
  "5050 State Highway 303 Northeast, Bremerton, WA": {
    "latitude": 47.6109161,
    "longitude": -122.6266545,
    "formatted_address": "5050 WA-303, Bremerton, WA 98311, USA"
  },
  "325 5th St, Brookings, OR": {
    "latitude": 42.0539248,
    "longitude": -124.2898646,
    "formatted_address": "325 5th St, Brookings, OR 97415, USA"
  },
  "12725 First Ave St, Burien, WA": {
    "latitude": 47.4890364,
    "longitude": -122.335814,
    "formatted_address": "12725 1st Ave S, Burien, WA 98168, USA"
  },
  "138 Southwest 148th Street, Burien, WA": {
    "latitude": 47.4716649,
    "longitude": -122.336736,
    "formatted_address": "138 SW 148th St, Burien, WA 98166, USA"
  },
  "14300 1st Ave S, Burien, WA": {
    "latitude": 47.4753406,
    "longitude": -122.3323911,
    "formatted_address": "14300 1st Ave S, Burien, WA 98168, USA"
  },
  "757 Haggen Drive, Burlington, WA": {
    "latitude": 48.4694758,
    "longitude": -122.3385432,
    "formatted_address": "757 Haggen Dr, Burlington, WA 98233, USA"
  },
  "920 South Burlington Boulevard, Burlington, WA": {
    "latitude": 48.4668509,
    "longitude": -122.3351664,
    "formatted_address": "920 S Burlington Blvd, Burlington, WA 98233, USA"
  },
  "246 West Monroe, Burns, OR": {
    "latitude": 43.5870286,
    "longitude": -119.0570591,
    "formatted_address": "246 W Monroe St, Burns, OR 97720, USA"
  },
  "1155 Calimesa Blvd, Calimesa, CA": {
    "latitude": 33.9958566,
    "longitude": -117.0567656,
    "formatted_address": "1155 Calimesa Blvd, Calimesa, CA 92320, USA"
  },
  "1004 Cherry Valley Blvd, Calimesa, CA": {
    "latitude": 33.9666063,
    "longitude": -117.0358206,
    "formatted_address": "1004 Cherry Valley Blvd, Calimesa, CA 92320, USA"
  },
  "800 NE 3rd Ave, Camas, WA": {
    "latitude": 45.5869631,
    "longitude": -122.399498,
    "formatted_address": "800 NE 3rd Ave, Camas, WA 98607, USA"
  },
  "1051 SW 1st Avenue, Canby, OR": {
    "latitude": 45.25541200000001,
    "longitude": -122.7022083,
    "formatted_address": "1051 SW 1st Ave, Canby, OR 97013, USA"
  },
  "1401 Southeast First, Canby, OR": {
    "latitude": 45.26628940000001,
    "longitude": -122.6769682,
    "formatted_address": "1401 SE 1st Ave, Canby, OR 97013, USA"
  },
  "34251 Date Palm Dr, Cathedral City, CA": {
    "latitude": 33.7998317,
    "longitude": -116.4599593,
    "formatted_address": "34251 Date Palm Dr, Cathedral City, CA 92234, USA"
  },
  "67800 Vista Chino, Cathedral City, CA": {
    "latitude": 33.8458264,
    "longitude": -116.477845,
    "formatted_address": "67800 Vista Chino, Cathedral City, CA 92234, USA"
  },
  "69255 Ramon Rd, Cathedral City, CA": {
    "latitude": 33.8147848,
    "longitude": -116.45618,
    "formatted_address": "69255 Ramon Rd, Cathedral City, CA 92234, USA"
  },
  "1360 Plaza Blvd, Central Point, OR": {
    "latitude": 42.3765624,
    "longitude": -122.9043413,
    "formatted_address": "1360 Plaza Blvd, Central Point, OR 97502, USA"
  },
  "505 South Tower, Centralia, WA": {
    "latitude": 46.7115872,
    "longitude": -122.9569865,
    "formatted_address": "505 S Tower Ave, Centralia, WA 98531, USA"
  },
  "1129 Harrison Avenue, Centralia, WA": {
    "latitude": 46.7276216,
    "longitude": -122.9810567,
    "formatted_address": "1129 Harrison Ave, Centralia, WA 98531, USA"
  },
  "1100 S Market Blvd, Chehalis, WA": {
    "latitude": 46.6551233,
    "longitude": -122.9540753,
    "formatted_address": "1100 S Market Blvd, Chehalis, WA 98532, USA"
  },
  "4721 Riverside Drive, Chino, CA": {
    "latitude": 34.01823660000001,
    "longitude": -117.7016897,
    "formatted_address": "4721 Riverside Dr, Chino, CA 91710, USA"
  },
  "12013 Central Ave, Chino, CA": {
    "latitude": 34.0349077,
    "longitude": -117.687926,
    "formatted_address": "12013 Central Ave, Chino, CA 91710, USA"
  },
  "8373 Pine Ave, Chino, CA": {
    "latitude": 33.957301,
    "longitude": -117.6218494,
    "formatted_address": "8373 Pine Ave, Chino, CA 91708, USA"
  },
  "6989 Schaefer Ave., Chino, CA": {
    "latitude": 34.0033434,
    "longitude": -117.6525601,
    "formatted_address": "6989 Schaefer Ave, Chino, CA 91710, USA"
  },
  "3255 Grand Ave, Chino Hills, CA": {
    "latitude": 34.0016731,
    "longitude": -117.7342238,
    "formatted_address": "3255 Grand Ave, Chino Hills, CA 91709, USA"
  },
  "14250 Chino Hills Pkwy., Chino Hills, CA": {
    "latitude": 33.9938562,
    "longitude": -117.7588692,
    "formatted_address": "14250 Chino Hills Pkwy, Chino Hills, CA 91709, USA"
  },
  "15970 Los Serranos Country Club Dr, Chino Hills, CA": {
    "latitude": 33.9614709,
    "longitude": -117.6955129,
    "formatted_address": "15970 Los Serranos Country Club Dr, Chino Hills, CA 91709, USA"
  },
  "16301 SE 82nd Dr, Clackamas, OR": {
    "latitude": 45.4043861,
    "longitude": -122.5701947,
    "formatted_address": "16301 SE 82nd Dr, Clackamas, OR 97015, USA"
  },
  "12032 SE Sunnyside Rd, Clackamas, OR": {
    "latitude": 45.4287687,
    "longitude": -122.5394974,
    "formatted_address": "12032 SE Sunnyside Rd, Clackamas, OR 97015, USA"
  },
  "1055 W Foothill Blvd, Claremont, CA": {
    "latitude": 34.1077162,
    "longitude": -117.7355047,
    "formatted_address": "1055 W Foothill Blvd, Claremont, CA 91711, USA"
  },
  "550 East Baseline Road, Claremont, CA": {
    "latitude": 34.12056980000001,
    "longitude": -117.7060732,
    "formatted_address": "550 E Baseline Rd, Claremont, CA 91711, USA"
  },
  "401 E Columbia River Hwy, Clatskanie, OR": {
    "latitude": 46.10276409999999,
    "longitude": -123.2013909,
    "formatted_address": "401 E Columbia River Hwy, Clatskanie, OR 97016, USA"
  },
  "49241 Grapefruit Blvd, Coachella, CA": {
    "latitude": 33.6899946,
    "longitude": -116.1853298,
    "formatted_address": "49241 Grapefruit Blvd, Coachella, CA 92236, USA"
  },
  "1150 N Pepper Ave, Colton, CA": {
    "latitude": 34.0798013,
    "longitude": -117.3512727,
    "formatted_address": "1150 N Pepper Ave, Colton, CA 92324, USA"
  },
  "151 East Valley Blvd., Colton, CA": {
    "latitude": 34.0675068,
    "longitude": -117.323359,
    "formatted_address": "151 E Valley Blvd, Colton, CA 92324, USA"
  },
  "2053 E Washington St, Colton, CA": {
    "latitude": 34.0499653,
    "longitude": -117.2914854,
    "formatted_address": "2053 E Washington St, Colton, CA 92324, USA"
  },
  "1020 S 1st St, Coos Bay, OR": {
    "latitude": 43.35691,
    "longitude": -124.2105881,
    "formatted_address": "1020 S 1st St, Coos Bay, OR 97420, USA"
  },
  "230 E Johnson Ave, Coos Bay, OR": {
    "latitude": 43.3589086,
    "longitude": -124.2104613,
    "formatted_address": "230 E Johnson Ave, Coos Bay, OR 97420, USA"
  },
  "155 East First Street, Coquille, OR": {
    "latitude": 43.1743928,
    "longitude": -124.1873849,
    "formatted_address": "155 E 1st St, Coquille, OR 97423, USA"
  },
  "2200 Baseline St, Cornelius, OR": {
    "latitude": 45.5218333,
    "longitude": -123.0446111,
    "formatted_address": "2200 E Baseline St, Cornelius, OR 97113, USA"
  },
  "1193 Magnolia Ave, Corona, CA": {
    "latitude": 33.8647321,
    "longitude": -117.5460992,
    "formatted_address": "1193 Magnolia Ave, Corona, CA 92879, USA"
  },
  "535 N Mckinley Street, Corona, CA": {
    "latitude": 33.8913722,
    "longitude": -117.5201397,
    "formatted_address": "535 N McKinley St, Corona, CA 92879, USA"
  },
  "1288 Border Avenue, Corona, CA": {
    "latitude": 33.8693191,
    "longitude": -117.5942106,
    "formatted_address": "1288 Border Ave, Corona, CA 92882, USA"
  },
  "550 Hidden Valley Parkway, Corona, CA": {
    "latitude": 33.8983028,
    "longitude": -117.5554384,
    "formatted_address": "550 Hidden Valley Pkwy, Corona, CA 92879, USA"
  },
  "369 Magnolia Ave, Corona, CA": {
    "latitude": 33.854331,
    "longitude": -117.5631589,
    "formatted_address": "369 Magnolia Ave, Corona, CA 92879, USA"
  },
  "2661 Green River Rd, Corona, CA": {
    "latitude": 33.8715708,
    "longitude": -117.6218575,
    "formatted_address": "2661 Green River Rd, Corona, CA 92882, USA"
  },
  "12660 Limonite Ave, Corona, CA": {
    "latitude": 33.9748221,
    "longitude": -117.560224,
    "formatted_address": "12660 Limonite Ave, Corona, CA 92880, USA"
  },
  "2243 Eagle Glen Parkway, Corona, CA": {
    "latitude": 33.8229453,
    "longitude": -117.5232587,
    "formatted_address": "2243 Eagle Glen Pkwy, Corona, CA 92883, USA"
  },
  "7070 Archibald Ave, Corona, CA": {
    "latitude": 33.9593187,
    "longitude": -117.5918123,
    "formatted_address": "7070 Archibald Ave, Corona, CA 92880, USA"
  },
  "260 West Foothill Pkwy, Corona, CA": {
    "latitude": 33.8436448,
    "longitude": -117.5742681,
    "formatted_address": "260 W Foothill Pkwy, Corona, CA 92882, USA"
  },
  "11800 De Palma Rd, Corona, CA": {
    "latitude": 33.7473282,
    "longitude": -117.4530693,
    "formatted_address": "11800 De Palma Rd, Corona, CA 92883, USA"
  },
  "590 NE Circle Boulevard, Corvallis, OR": {
    "latitude": 44.5869087,
    "longitude": -123.2511177,
    "formatted_address": "590 NE Circle Blvd, Corvallis, OR 97330, USA"
  },
  "450 Southwest Third Avenue, Corvallis, OR": {
    "latitude": 44.5608179,
    "longitude": -123.2632609,
    "formatted_address": "450 SW 3rd St, Corvallis, OR 97333, USA"
  },
  "777 Kings Boulevard, Corvallis, OR": {
    "latitude": 44.5752491,
    "longitude": -123.2742042,
    "formatted_address": "777 NW Kings Blvd, Corvallis, OR 97330, USA"
  },
  "5270 SW PHILOMATH BLVD, Corvallis, OR": {
    "latitude": 44.5542562,
    "longitude": -123.3006439,
    "formatted_address": "SW Philomath Blvd, Corvallis, OR 97333, USA"
  },
  "1500 E Main St, Cottage Grove, OR": {
    "latitude": 43.7981345,
    "longitude": -123.0520666,
    "formatted_address": "1500 E Main St, Cottage Grove, OR 97424, USA"
  },
  "16735 Southeast 272nd Street, Covington, WA": {
    "latitude": 47.35617999999999,
    "longitude": -122.1202319,
    "formatted_address": "16735 SE 272nd St, Kent, WA 98042, USA"
  },
  "138 W Ellendale Ave, Dallas, OR": {
    "latitude": 44.9296953,
    "longitude": -123.3126071,
    "formatted_address": "138 W Ellendale Ave, Dallas, OR 97338, USA"
  },
  "20151 Southeast Highway 212, Damascus, OR": {
    "latitude": 45.4181922,
    "longitude": -122.4551969,
    "formatted_address": "20151 SE Hwy 212, Boring, OR 97089, USA"
  },
  "27035 Pacific Highway South, Des Moines, WA": {
    "latitude": 47.3593921,
    "longitude": -122.3105355,
    "formatted_address": "27035 Pacific Hwy S, Des Moines, WA 98198, USA"
  },
  "21401 Pacific Hwy S, Des Moines, WA": {
    "latitude": 47.4091446,
    "longitude": -122.2985947,
    "formatted_address": "21401 Pacific Hwy S, Des Moines, WA 98198, USA"
  },
  "14200 Palm Dr, Desert Hot Springs, CA": {
    "latitude": 33.9453633,
    "longitude": -116.4999554,
    "formatted_address": "14200 Palm Dr, Desert Hot Springs, CA 92240, USA"
  },
  "13200 Palm Dr, Desert Hot Springs, CA": {
    "latitude": 33.9525587,
    "longitude": -116.5004551,
    "formatted_address": "13200 Palm Dr, Desert Hot Springs, CA 92240, USA"
  },
  "14020 Main St Northeast, Duvall, WA": {
    "latitude": 47.7265026,
    "longitude": -121.985054,
    "formatted_address": "14020 Main St NE, Duvall, WA 98019, USA"
  },
  "6170 Hamner Ave, Eastvale, CA": {
    "latitude": 33.9765251,
    "longitude": -117.5578394,
    "formatted_address": "6170 Hamner Ave, Eastvale, CA 91752, USA"
  },
  "22828 100th Ave W, Edmonds, WA": {
    "latitude": 47.79138469999999,
    "longitude": -122.367687,
    "formatted_address": "22828 100th Ave W, Edmonds, WA 98020, USA"
  },
  "601 West North Street, Enterprise, OR": {
    "latitude": 45.4278455,
    "longitude": -117.2860359,
    "formatted_address": "601 W North St, Enterprise, OR 97828, USA"
  },
  "1009 Monroe Avenue, Enumclaw, WA": {
    "latitude": 47.1996461,
    "longitude": -121.9912743,
    "formatted_address": "1009 Monroe Ave, Enumclaw, WA 98022, USA"
  },
  "152 Roosevelt Ave, Enumclaw, WA": {
    "latitude": 47.1981755,
    "longitude": -121.9799197,
    "formatted_address": "152 Roosevelt Ave E, Enumclaw, WA 98022, USA"
  },
  "55 Division Ave, Eugene, OR": {
    "latitude": 44.10065669999999,
    "longitude": -123.1283431,
    "formatted_address": "55 Division Ave, Eugene, OR 97404, USA"
  },
  "3075 Hilyard St., Eugene, OR": {
    "latitude": 44.02307750000001,
    "longitude": -123.0809151,
    "formatted_address": "3075 Hilyard St, Eugene, OR 97405, USA"
  },
  "350 E 40th Ave, Eugene, OR": {
    "latitude": 44.0108464,
    "longitude": -123.0887719,
    "formatted_address": "350 E 40th Ave, Eugene, OR 97405, USA"
  },
  "311 Coburg Rd, Eugene, OR": {
    "latitude": 44.0645956,
    "longitude": -123.0738439,
    "formatted_address": "311 Coburg Rd, Eugene, OR 97401, USA"
  },
  "1675 W 18th Ave, Eugene, OR": {
    "latitude": 44.0415681,
    "longitude": -123.1167084,
    "formatted_address": "1675 W 18th Ave, Eugene, OR 97402, USA"
  },
  "4740 Royal Ave, Eugene, OR": {
    "latitude": 44.06850439999999,
    "longitude": -123.1791412,
    "formatted_address": "4740 Royal Ave, Eugene, OR 97402, USA"
  },
  "1500 Coburg Rd, Eugene, OR": {
    "latitude": 44.0782122,
    "longitude": -123.0703195,
    "formatted_address": "1500 Coburg Rd, Eugene, OR 97401, USA"
  },
  "145 E 18th Ave, Eugene, OR": {
    "latitude": 44.0407106,
    "longitude": -123.0904631,
    "formatted_address": "145 E 18th Ave, Eugene, OR 97401, USA"
  },
  "3333 W 11th Ave, Eugene, OR": {
    "latitude": 44.0494154,
    "longitude": -123.1422906,
    "formatted_address": "3333 W 11th Ave, Eugene, OR 97402, USA"
  },
  "60 Division Ave, Eugene, OR": {
    "latitude": 44.0979586,
    "longitude": -123.1241285,
    "formatted_address": "60 Division Ave, Eugene, OR 97404, USA"
  },
  "4919 Evergreen Way, Everett, WA": {
    "latitude": 47.9525026,
    "longitude": -122.2120411,
    "formatted_address": "4919 Evergreen Wy, Everett, WA 98203, USA"
  },
  "2615 Broadway Ave, Everett, WA": {
    "latitude": 47.9828004,
    "longitude": -122.2005671,
    "formatted_address": "2615 Broadway, Everett, WA 98201, USA"
  },
  "5802 134th PL SE, Everett, WA": {
    "latitude": 47.8754936,
    "longitude": -122.1537933,
    "formatted_address": "5802 134th Pl SE, Everett, WA 98208, USA"
  },
  "520 128th St SW, Everett, WA": {
    "latitude": 47.8808004,
    "longitude": -122.2406129,
    "formatted_address": "520 128th St SW, Everett, WA 98204, USA"
  },
  "11031 19th Ave SE, Everett, WA": {
    "latitude": 47.89735109999999,
    "longitude": -122.2051108,
    "formatted_address": "11031 19th Ave SE, Everett, WA 98208, USA"
  },
  "1715 Broadway Dr., Everett, WA": {
    "latitude": 47.994134,
    "longitude": -122.2003161,
    "formatted_address": "1715 Broadway, Everett, WA 98201, USA"
  },
  "7601 Evergreen Way, Everett, WA": {
    "latitude": 47.9285,
    "longitude": -122.2196711,
    "formatted_address": "7601 Evergreen Wy, Everett, WA 98203, USA"
  },
  "4128 Rucker Ave, Everett, WA": {
    "latitude": 47.962591,
    "longitude": -122.2120656,
    "formatted_address": "4128 Rucker Ave, Everett, WA 98201, USA"
  },
  "12906 Bothell-Everett Hwy, Everett, WA": {
    "latitude": 47.8796725,
    "longitude": -122.2074108,
    "formatted_address": "12906 Bothell Everett Hwy, Everett, WA 98208, USA"
  },
  "28810 Military Rd S., Federal Way, WA": {
    "latitude": 47.3425312,
    "longitude": -122.3000472,
    "formatted_address": "28810 Military Rd S, Federal Way, WA 98003, USA"
  },
  "1207 S 320th St, Federal Way, WA": {
    "latitude": 47.3147799,
    "longitude": -122.3180134,
    "formatted_address": "1207 S 320th St, Federal Way, WA 98003, USA"
  },
  "33702 21St Avenue Southwest, Federal Way, WA": {
    "latitude": 47.2984897,
    "longitude": -122.3589862,
    "formatted_address": "33702 21st Ave SW, Federal Way, WA 98023, USA"
  },
  "1815 Main Street, Ferndale, WA": {
    "latitude": 48.8431095,
    "longitude": -122.5805664,
    "formatted_address": "1815 Main St, Ferndale, WA 98248, USA"
  },
  "700 Highway 101, Florence, OR": {
    "latitude": 43.972804,
    "longitude": -124.1035907,
    "formatted_address": "700 US-101, Florence, OR 97439, USA"
  },
  "4701 Highway 101, Florence, OR": {
    "latitude": 44.0077928,
    "longitude": -124.1026169,
    "formatted_address": "4701 US-101, Florence, OR 97439, USA"
  },
  "16991 Valley Blvd, Fontana, CA": {
    "latitude": 34.0684612,
    "longitude": -117.433889,
    "formatted_address": "16991 Valley Blvd, Fontana, CA 92335, USA"
  },
  "8228 SIERRA AVE, Fontana, CA": {
    "latitude": 34.1043781,
    "longitude": -117.4370094,
    "formatted_address": "8228 Sierra Ave., Fontana, CA 92335, USA"
  },
  "18140 Arrow Blvd, Fontana, CA": {
    "latitude": 34.1009398,
    "longitude": -117.408557,
    "formatted_address": "18140 Arrow Blvd, Fontana, CA 92335, USA"
  },
  "16225 Sierra Lakes Parkway, Fontana, CA": {
    "latitude": 34.1376953,
    "longitude": -117.4505404,
    "formatted_address": "16225 Sierra Lakes Pkwy, Fontana, CA 92336, USA"
  },
  "11225 Sierra Ave, Fontana, CA": {
    "latitude": 34.04980010000001,
    "longitude": -117.4338086,
    "formatted_address": "11225 Sierra Ave., Fontana, CA 92337, USA"
  },
  "7390 Cherry Ave, Fontana, CA": {
    "latitude": 34.1197828,
    "longitude": -117.4904151,
    "formatted_address": "7390 Cherry Ave, Fontana, CA 92336, USA"
  },
  "15222 Summit Avenue, Fontana, CA": {
    "latitude": 34.1513359,
    "longitude": -117.4755511,
    "formatted_address": "Stater Bros, 15222 Summit Ave, Fontana, CA 92336, USA"
  },
  "2836 Pacific Ave, Forest Grove, OR": {
    "latitude": 45.5194115,
    "longitude": -123.0953533,
    "formatted_address": "2836 Pacific Ave, Forest Grove, OR 97116, USA"
  },
  "4831 Point Fosdick DR NW, Gig Harbor, WA": {
    "latitude": 47.30226400000001,
    "longitude": -122.5758606,
    "formatted_address": "4831 Point Fosdick Dr, Gig Harbor, WA 98335, USA"
  },
  "5502 Point Fosdick Dr Nw, Gig Harbor, WA": {
    "latitude": 47.3075436,
    "longitude": -122.5810844,
    "formatted_address": "5502 Point Fosdick Dr, Gig Harbor, WA 98335, USA"
  },
  "11330 N W 51st Ave, Gig Harbor, WA": {
    "latitude": 47.3609681,
    "longitude": -122.6046577,
    "formatted_address": "11330 51st Ave NW, Gig Harbor, WA 98332, USA"
  },
  "95 82nd Drive, Gladstone, OR": {
    "latitude": 45.3816595,
    "longitude": -122.5822686,
    "formatted_address": "95 82nd Dr, Gladstone, OR 97027, USA"
  },
  "10105 224th St E, Graham, WA": {
    "latitude": 47.05427,
    "longitude": -122.2963296,
    "formatted_address": "10105 224th St E, Graham, WA 98338, USA"
  },
  "22201 Barton Rd, Grand Terrace, CA": {
    "latitude": 34.0325372,
    "longitude": -117.3204371,
    "formatted_address": "22201 Barton Rd, Grand Terrace, CA 92313, USA"
  },
  "115 SE 7th Street, Grants Pass, OR": {
    "latitude": 42.4386874,
    "longitude": -123.324775,
    "formatted_address": "115 SE 7th St, Grants Pass, OR 97526, USA"
  },
  "1690 Allen Creek Road, Grants Pass, OR": {
    "latitude": 42.41932,
    "longitude": -123.3527693,
    "formatted_address": "1690 Allen Creek Rd, Grants Pass, OR 97527, USA"
  },
  "1640 Williams Highway, Grants Pass, OR": {
    "latitude": 42.421108,
    "longitude": -123.3362527,
    "formatted_address": "1640 Williams Hwy, Grants Pass, OR 97527, USA"
  },
  "1101 Grants Pass Parkway, Grants Pass, OR": {
    "latitude": 42.4355402,
    "longitude": -123.304887,
    "formatted_address": "1101 Grants Pass Pkwy, Grants Pass, OR 97526, USA"
  },
  "1455 NE Division St, Gresham, OR": {
    "latitude": 45.50585539999999,
    "longitude": -122.4170551,
    "formatted_address": "1455 NE Division St, Gresham, OR 97030, USA"
  },
  "1001 SW Highland Dr, Gresham, OR": {
    "latitude": 45.4893131,
    "longitude": -122.4767638,
    "formatted_address": "1001 SW Highland Dr, Gresham, OR 97080, USA"
  },
  "2497 SE Burnside Rd, Gresham, OR": {
    "latitude": 45.4958074,
    "longitude": -122.4068825,
    "formatted_address": "2497 SE Burnside Rd, Gresham, OR 97080, USA"
  },
  "8955 SE 82nd Ave, Happy Valley, OR": {
    "latitude": 45.4579241,
    "longitude": -122.5806917,
    "formatted_address": "8955 SE 82nd Ave, Happy Valley, OR 97086, USA"
  },
  "17005 SE Sunnyside Rd, Happy Valley, OR": {
    "latitude": 45.4285313,
    "longitude": -122.4877249,
    "formatted_address": "17005 SE Sunnyside Rd, Clackamas, OR 97086, USA"
  },
  "14466 Main Street, Hesperia, CA": {
    "latitude": 34.4276014,
    "longitude": -117.3480592,
    "formatted_address": "14466 Main St, Hesperia, CA 92345, USA"
  },
  "16904 Main St, Hesperia, CA": {
    "latitude": 34.4220356,
    "longitude": -117.2946147,
    "formatted_address": "16904 Main St, Hesperia, CA 92345, USA"
  },
  "7201 Boulder Ave, Highland, CA": {
    "latitude": 34.1239047,
    "longitude": -117.193564,
    "formatted_address": "7201 Boulder Ave, Highland, CA 92346, USA"
  },
  "3633 Highland Ave, Highland, CA": {
    "latitude": 34.1343363,
    "longitude": -117.2078247,
    "formatted_address": "3633 Highland Ave, Highland, CA 92346, USA"
  },
  "26529 Highland Ave, Highland, CA": {
    "latitude": 34.1345032,
    "longitude": -117.2253545,
    "formatted_address": "26529 Highland Ave, Highland, CA 92346, USA"
  },
  "27920 Greenspot Rd., Highland, CA": {
    "latitude": 34.1085088,
    "longitude": -117.1926781,
    "formatted_address": "27920 Greenspot Rd, Highland, CA 92346, USA"
  },
  "28988 Greenspot Rd, Highland, CA": {
    "latitude": 34.1110722,
    "longitude": -117.1724288,
    "formatted_address": "28988 Greenspot Rd, Highland, CA 92346, USA"
  },
  "7500 W Baseline, Hillsboro, OR": {
    "latitude": 45.5146058,
    "longitude": -122.9041033,
    "formatted_address": "7500 W Baseline Rd, Hillsboro, OR 97123, USA"
  },
  "2525 SE Tualatin Valley Hwy, Hillsboro, OR": {
    "latitude": 45.5058969,
    "longitude": -122.9543947,
    "formatted_address": "2525 SE Tualatin Valley Hwy, Hillsboro, OR 97123, USA"
  },
  "888 N.E. 25th Ave, Hillsboro, OR": {
    "latitude": 45.5294287,
    "longitude": -122.9562422,
    "formatted_address": "888 NE 25th Ave, Hillsboro, OR 97124, USA"
  },
  "22075 Northwest Imbrie Drive, Hillsboro, OR": {
    "latitude": 45.5513308,
    "longitude": -122.9031384,
    "formatted_address": "22075 NE Imbrie Dr, Hillsboro, OR 97124, USA"
  },
  "2177 NW 185th Avenue, Hillsboro, OR": {
    "latitude": 45.5360798,
    "longitude": -122.8697631,
    "formatted_address": "2177 NW 185th Ave, Hillsboro, OR 97124, USA"
  },
  "6495 SE Tualatin Valley Hwy, Hillsboro, OR": {
    "latitude": 45.4995853,
    "longitude": -122.9141493,
    "formatted_address": "6495 SE Tualatin Valley Hwy, Hillsboro, OR 97123, USA"
  },
  "2249 Cascade Avenue, Hood River, OR": {
    "latitude": 45.7087368,
    "longitude": -121.5349924,
    "formatted_address": "2249 Cascade Ave, Hood River, OR 97031, USA"
  },
  "1867 12th Street, Hood River, OR": {
    "latitude": 45.6948435,
    "longitude": -121.5222591,
    "formatted_address": "1867 12th St, Hood River, OR 97031, USA"
  },
  "81056 US Hwy 111, Indio, CA": {
    "latitude": 33.714754,
    "longitude": -116.2302735,
    "formatted_address": "CA-111, Indio, CA, USA"
  },
  "82124 US HIGHWAY 111, Indio, CA": {
    "latitude": 33.714754,
    "longitude": -116.2302735,
    "formatted_address": "CA-111, Indio, CA, USA"
  },
  "49908 Jefferson St, Indio, CA": {
    "latitude": 33.6862997,
    "longitude": -116.2677422,
    "formatted_address": "49908 Jefferson St, Indio, CA 92201, USA"
  },
  "1540 Gilman Boulevard, Issaquah, WA": {
    "latitude": 47.546601,
    "longitude": -122.0602521,
    "formatted_address": "1540 NW Gilman Blvd, Issaquah, WA 98027, USA"
  },
  "735 N W Gilman Boulevard, Issaquah, WA": {
    "latitude": 47.5415358,
    "longitude": -122.0485819,
    "formatted_address": "735 NW Gilman Blvd, Issaquah, WA 98027, USA"
  },
  "6100 E Lake Sammamish Pkwy SE, Issaquah, WA": {
    "latitude": 47.54872839999999,
    "longitude": -122.0389226,
    "formatted_address": "6100 E Lake Sammamish Pkwy SE, Issaquah, WA 98029, USA"
  },
  "1451 Highlands Drive, Issaquah, WA": {
    "latitude": 47.5422503,
    "longitude": -122.0175382,
    "formatted_address": "1451 Highlands Dr NE, Issaquah, WA 98029, USA"
  },
  "1755 Ivy St, Junction City, OR": {
    "latitude": 44.2291112,
    "longitude": -123.2060652,
    "formatted_address": "1755 Ivy St, Junction City, OR 97448, USA"
  },
  "4990 River Rd N, Keizer, OR": {
    "latitude": 44.99635199999999,
    "longitude": -123.0240245,
    "formatted_address": "4990 River Rd N, Keizer, OR 97303, USA"
  },
  "411 Three River Drive, Kelso, WA": {
    "latitude": 46.1421532,
    "longitude": -122.9012653,
    "formatted_address": "411 Three Rivers Dr, Kelso, WA 98626, USA"
  },
  "6850 N E Bothell Way, Kenmore, WA": {
    "latitude": 47.7592812,
    "longitude": -122.2476459,
    "formatted_address": "6850 NE Bothell Way, Kenmore, WA 98028, USA"
  },
  "13304 SE 240th St, Kent, WA": {
    "latitude": 47.3875703,
    "longitude": -122.1634928,
    "formatted_address": "13304 SE 240th St, Kent, WA 98042, USA"
  },
  "20830 108th Avenue Southeast, Kent, WA": {
    "latitude": 47.4151463,
    "longitude": -122.1955555,
    "formatted_address": "20830 108th Ave SE, Kent, WA 98031, USA"
  },
  "210 Washington Avenue South, Kent, WA": {
    "latitude": 47.3805498,
    "longitude": -122.2460874,
    "formatted_address": "210 Washington Ave S, Kent, WA 98032, USA"
  },
  "17051 SE 272nd St, Kent, WA": {
    "latitude": 47.3569975,
    "longitude": -122.1143387,
    "formatted_address": "17051 SE 272nd St, Covington, WA 98042, USA"
  },
  "13101 SE Kent Kangley Road, Kent, WA": {
    "latitude": 47.3566693,
    "longitude": -122.1667983,
    "formatted_address": "13101 SE Kent-Kangley Rd, Kent, WA 98030, USA"
  },
  "25250 Pacific Highway South, Kent, WA": {
    "latitude": 47.37500439999999,
    "longitude": -122.2974884,
    "formatted_address": "25250 Pacific Hwy S, Kent, WA 98032, USA"
  },
  "15570 SW Pacific Hwy, King City, OR": {
    "latitude": 45.4072213,
    "longitude": -122.7927096,
    "formatted_address": "15570 SW Pacific Hwy, Tigard, OR 97224, USA"
  },
  "8196 NE STATE HIGHWAY 104, Kingston, WA": {
    "latitude": 47.8115186,
    "longitude": -122.5406594,
    "formatted_address": "8196 NE State Hwy 104, Kingston, WA 98346, USA"
  },
  "11224 Ne 124Th Street, Kirkland, WA": {
    "latitude": 47.7123828,
    "longitude": -122.191207,
    "formatted_address": "11224 NE 124th St, Kirkland, WA 98034, USA"
  },
  "425 Urban Plaza Suite 100, Kirkland, WA": {
    "latitude": 47.6777224,
    "longitude": -122.1993336,
    "formatted_address": "425 Urban Plz Suite #100, Kirkland, WA 98033, USA"
  },
  "14130 Juanita Dr NE, Kirkland, WA": {
    "latitude": 47.7291216,
    "longitude": -122.2430593,
    "formatted_address": "14130 Juanita Dr NE, Kirkland, WA 98034, USA"
  },
  "14444 124Th Avenue N E, Kirkland, WA": {
    "latitude": 47.7323717,
    "longitude": -122.1741692,
    "formatted_address": "14444 124th Ave NE, Kirkland, WA 98034, USA"
  },
  "12519 N E 85Th Street, Kirkland, WA": {
    "latitude": 47.678829,
    "longitude": -122.1734308,
    "formatted_address": "12519 NE 85th St, Kirkland, WA 98033, USA"
  },
  "12221 120th Ave NE, Kirkland, WA": {
    "latitude": 47.7082014,
    "longitude": -122.1831997,
    "formatted_address": "Parking lot, 12221 120th Ave NE, Kirkland, WA 98034, USA"
  },
  "10020 NE 137th St, Kirkland, WA": {
    "latitude": 47.72298319999999,
    "longitude": -122.206049,
    "formatted_address": "10020 NE 137th St, Kirkland, WA 98034, USA"
  },
  "5500 S 6th St, Klamath Falls, OR": {
    "latitude": 42.2057425,
    "longitude": -121.7200642,
    "formatted_address": "5500 S 6th St, Klamath Falls, OR 97603, USA"
  },
  "2655 Shasta Way, Klamath Falls, OR": {
    "latitude": 42.21576170000001,
    "longitude": -121.7563617,
    "formatted_address": "2655 Shasta Way, Klamath Falls, OR 97603, USA"
  },
  "2111 Adams Avenue, La Grande, OR": {
    "latitude": 45.3213057,
    "longitude": -118.0808673,
    "formatted_address": "2111 Adams Ave, La Grande, OR 97850, USA"
  },
  "78630 Highway 111, La Quinta, CA": {
    "latitude": 33.7150647,
    "longitude": -116.2923775,
    "formatted_address": "78630 CA-111, La Quinta, CA 92253, USA"
  },
  "78271 Hwy 111, La Quinta, CA": {
    "latitude": 33.714895,
    "longitude": -116.2981072,
    "formatted_address": "78-271 CA-111, La Quinta, CA 92253, USA"
  },
  "2090 Foothill Blvd, La Verne, CA": {
    "latitude": 34.1123637,
    "longitude": -117.7662807,
    "formatted_address": "2090 Foothill Blvd, La Verne, CA 91750, USA"
  },
  "1600 Foothill Blvd, La Verne, CA": {
    "latitude": 34.1146123,
    "longitude": -117.7731454,
    "formatted_address": "1600 Foothill Blvd, La Verne, CA 91750, USA"
  },
  "4775 Whitman Lane Southeast, Lacey, WA": {
    "latitude": 46.9947632,
    "longitude": -122.8238645,
    "formatted_address": "4775 Whitman Ln SE, Lacey, WA 98513, USA"
  },
  "6200 Pacific Avenue SE, Lacey, WA": {
    "latitude": 47.0392599,
    "longitude": -122.7998451,
    "formatted_address": "6200 Pacific Ave SE, Lacey, WA 98503, USA"
  },
  "700 Sleater Kinney Rd SE, Lacey, WA": {
    "latitude": 47.0395365,
    "longitude": -122.8323105,
    "formatted_address": "700 Sleater Kinney Rd SE, Lacey, WA 98503, USA"
  },
  "28100 State Highway 189, Lake Arrowhead, CA": {
    "latitude": 34.2504713,
    "longitude": -117.1905184,
    "formatted_address": "28100 CA-189, Lake Arrowhead, CA 92352, USA"
  },
  "17171 Bothell Way NE, Lake Forest Park, WA": {
    "latitude": 47.754216,
    "longitude": -122.2797979,
    "formatted_address": "17171 Bothell Way NE, Lake Forest Park, WA 98155, USA"
  },
  "401 A Avenue, Lake Oswego, OR": {
    "latitude": 45.4208305,
    "longitude": -122.6684593,
    "formatted_address": "401 A Ave, Lake Oswego, OR 97034, USA"
  },
  "16199 Boones Ferry Road, Lake Oswego, OR": {
    "latitude": 45.4095465,
    "longitude": -122.722927,
    "formatted_address": "16199 Boones Ferry Rd, Lake Oswego, OR 97035, USA"
  },
  "17779 Boones Ferry Road, Lake Oswego, OR": {
    "latitude": 45.3984123,
    "longitude": -122.7418823,
    "formatted_address": "17779 SW Ferry Rd, Lake Oswego, OR 97035, USA"
  },
  "8915 Market PL, Lake Stevens, WA": {
    "latitude": 47.9989643,
    "longitude": -122.1106524,
    "formatted_address": "8915 Market Pl NE, Lake Stevens, WA 98258, USA"
  },
  "717 STATE ROUTE 9 NE, Lake Stevens, WA": {
    "latitude": 48.003747,
    "longitude": -122.1035074,
    "formatted_address": "717 9th St NE, Lake Stevens, WA 98258, USA"
  },
  "244 N F Street, Lakeview, OR": {
    "latitude": 42.1918044,
    "longitude": -120.3452553,
    "formatted_address": "244 N F St, Lakeview, OR 97630, USA"
  },
  "8611 Steilacoom Blvd SW, Lakewood, WA": {
    "latitude": 47.1804004,
    "longitude": -122.5519646,
    "formatted_address": "8611 Steilacoom Blvd SW, Lakewood, WA 98498, USA"
  },
  "10223 Gravelly Lake Dr SW, Lakewood, WA": {
    "latitude": 47.16465059999999,
    "longitude": -122.5201022,
    "formatted_address": "10223 Gravelly Lake Dr SW, Lakewood, WA 98499, USA"
  },
  "1983 South Main Street, Lebanon, OR": {
    "latitude": 44.5271923,
    "longitude": -122.9065792,
    "formatted_address": "1983 S Main St, Lebanon, OR 97355, USA"
  },
  "4101 NW Logan Road, Lincoln City, OR": {
    "latitude": 44.997217,
    "longitude": -124.0062246,
    "formatted_address": "4101 NW Logan Rd, Lincoln City, OR 97367, USA"
  },
  "25630 Barton Rd, Loma Linda, CA": {
    "latitude": 34.0493032,
    "longitude": -117.2451806,
    "formatted_address": "25630 Barton Rd, Loma Linda, CA 92354, USA"
  },
  "2930 Ocean Beach Highway, Longview, WA": {
    "latitude": 46.148871,
    "longitude": -122.9609881,
    "formatted_address": "2930 Ocean Beach Hwy, Longview, WA 98632, USA"
  },
  "1227 15Th Ave, Longview, WA": {
    "latitude": 46.1370282,
    "longitude": -122.93781,
    "formatted_address": "1227 15th Ave, Longview, WA 98632, USA"
  },
  "3184 Ocean Beach Highway, Longview, WA": {
    "latitude": 46.1486508,
    "longitude": -122.9637954,
    "formatted_address": "3184 Ocean Beach Hwy, Longview, WA 98632, USA"
  },
  "8130 GUIDE MERIDIAN Road, LYNDEN, WA": {
    "latitude": 48.9365953,
    "longitude": -122.4827029,
    "formatted_address": "8130 WA-539, Lynden, WA 98264, USA"
  },
  "8071 Guide Meridian Rd #101, Lynden, WA": {
    "latitude": 48.9343255,
    "longitude": -122.4873086,
    "formatted_address": "8071 Guide Meridian Rd UNIT 101, Lynden, WA 98264, USA"
  },
  "19500 Pacific Hwy, Lynnwood, WA": {
    "latitude": 47.8221919,
    "longitude": -122.3166858,
    "formatted_address": "19500 Pacific Hwy, Lynnwood, WA 98036, USA"
  },
  "7500 B 196Th Southwest, Lynnwood, WA": {
    "latitude": 47.8204042,
    "longitude": -122.334896,
    "formatted_address": "7500-B 196th St SW, Lynnwood, WA 98036, USA"
  },
  "12811 Beverly Park Rd, Lynnwood, WA": {
    "latitude": 47.8810777,
    "longitude": -122.2810305,
    "formatted_address": "12811 Beverly Park Rd, Lynnwood, WA 98087, USA"
  },
  "14826 Hwy 99 N, Lynnwood, WA": {
    "latitude": 47.8638989,
    "longitude": -122.2828562,
    "formatted_address": "14826 Hwy 99, Lynnwood, WA 98087, USA"
  },
  "2902 164th St SW, Lynnwood, WA": {
    "latitude": 47.8474119,
    "longitude": -122.2730431,
    "formatted_address": "2902 164th St SW, Lynnwood, WA 98087, USA"
  },
  "4615 196th St SW Ste 175, Lynnwood, WA": {
    "latitude": 47.82207229999999,
    "longitude": -122.2955373,
    "formatted_address": "4615 196th St SW #175, Lynnwood, WA 98036, USA"
  },
  "80 NE Cedar, Madras, OR": {
    "latitude": 44.6439505,
    "longitude": -121.1281892,
    "formatted_address": "80 NE Cedar St, Madras, OR 97741, USA"
  },
  "22131 SE 237th Street, Maple Valley, WA": {
    "latitude": 47.3880236,
    "longitude": -122.0450218,
    "formatted_address": "22131 SE 237th St, Maple Valley, WA 98038, USA"
  },
  "26916 Maple Valley Black Diamond Rd SE, Maple Valley, WA": {
    "latitude": 47.3603731,
    "longitude": -122.0185168,
    "formatted_address": "26916 Maple Valley Black Diamond Rd SE, Maple Valley, WA 98038, USA"
  },
  "26520 Maple Valley Black Diamond Rd SE, Maple Valley, WA": {
    "latitude": 47.3635873,
    "longitude": -122.0188644,
    "formatted_address": "26520 Maple Valley Black Diamond Rd SE, Maple Valley, WA 98038, USA"
  },
  "3711 88th Street NE, Marysville, WA": {
    "latitude": 48.0770143,
    "longitude": -122.1805802,
    "formatted_address": "3711 88th St NE, Marysville, WA 98270, USA"
  },
  "1258 State Ave, Marysville, WA": {
    "latitude": 48.0625209,
    "longitude": -122.1744993,
    "formatted_address": "1258 State Ave, Marysville, WA 98270, USA"
  },
  "301 Marysville Mall #60, Marysville, WA": {
    "latitude": 48.0506785,
    "longitude": -122.1776299,
    "formatted_address": "221 State Ave, Marysville, WA 98270, USA"
  },
  "9925 State Avenue, Marysville, WA": {
    "latitude": 48.085187,
    "longitude": -122.1707306,
    "formatted_address": "9925 State Ave, Marysville, WA 98270, USA"
  },
  "615 SW Keck Dr, Mcminnville, OR": {
    "latitude": 45.1966217,
    "longitude": -123.2052316,
    "formatted_address": "615 SW Keck Cir, McMinnville, OR 97128, USA"
  },
  "2490 NE HIGHWAY 99W, McMinnville, OR": {
    "latitude": 45.2282929,
    "longitude": -123.1748908,
    "formatted_address": "2490 NE Hwy 99W, McMinnville, OR 97128, USA"
  },
  "910 N Phoenix Road, Medford, OR": {
    "latitude": 42.3168994,
    "longitude": -122.8151458,
    "formatted_address": "910 N Phoenix Rd, Medford, OR 97504, USA"
  },
  "3169 Crater Lake Highway, Medford, OR": {
    "latitude": 42.3626312,
    "longitude": -122.8586607,
    "formatted_address": "3169 Crater Lake Hwy, Medford, OR 97504, USA"
  },
  "1003 Medford Center, Medford, OR": {
    "latitude": 42.3334351,
    "longitude": -122.8636521,
    "formatted_address": "1003 Medford Center, Medford, OR 97504, USA"
  },
  "113 Ross Lane, Medford, OR": {
    "latitude": 42.3251171,
    "longitude": -122.9008801,
    "formatted_address": "113 N Ross Ln, Medford, OR 97501, USA"
  },
  "1301 Center Drive, Medford, OR": {
    "latitude": 42.3143161,
    "longitude": -122.8560981,
    "formatted_address": "1301 Center Dr, Medford, OR 97501, USA"
  },
  "2424 Crater Lake Hwy, Medford, OR": {
    "latitude": 42.3518181,
    "longitude": -122.8709019,
    "formatted_address": "2424 Crater Lake Hwy, Medford, OR 97504, USA"
  },
  "8421 SE 68th St, Mercer Island, WA": {
    "latitude": 47.5410692,
    "longitude": -122.225994,
    "formatted_address": "Parking lot, 8421 SE 68th St, Mercer Island, WA 98040, USA"
  },
  "7823 Se 28Th Street, Mercer Island, WA": {
    "latitude": 47.5848816,
    "longitude": -122.2326933,
    "formatted_address": "7823 SE 28th St, Mercer Island, WA 98040, USA"
  },
  "16304 Bothell-Everett Hwy, Mill Creek, WA": {
    "latitude": 47.8508627,
    "longitude": -122.2200993,
    "formatted_address": "16304 Bothell Everett Hwy, Mill Creek, WA 98012, USA"
  },
  "900 E Meridian Ste 12, Milton, WA": {
    "latitude": 47.2481558,
    "longitude": -122.312899,
    "formatted_address": "Milton, WA, USA"
  },
  "4320 SE King Rd, Milwaukie, OR": {
    "latitude": 45.4469682,
    "longitude": -122.6182945,
    "formatted_address": "4320 SE King Rd, Portland, OR 97206, USA"
  },
  "14840 SE Webster Rd, Milwaukie, OR": {
    "latitude": 45.4157501,
    "longitude": -122.590793,
    "formatted_address": "14840 SE Webster Rd, Milwaukie, OR 97267, USA"
  },
  "14700 SE Mcloughlin Blvd, Milwaukie, OR": {
    "latitude": 45.4167709,
    "longitude": -122.6303982,
    "formatted_address": "14700 SE McLoughlin Blvd, Milwaukie, OR 97267, USA"
  },
  "11070 Limonite Avenue, Mira Loma, CA": {
    "latitude": 33.9753293,
    "longitude": -117.5242856,
    "formatted_address": "11070 Limonite Ave, Mira Loma, CA 91752, USA"
  },
  "1525 West Main Street, Molalla, OR": {
    "latitude": 45.1525007,
    "longitude": -122.6033987,
    "formatted_address": "1525 W Main St, Molalla, OR 97038, USA"
  },
  "19651 U.S. 2, Monroe, WA": {
    "latitude": 47.8601324,
    "longitude": -121.9674334,
    "formatted_address": "19651 US-2, Monroe, WA 98272, USA"
  },
  "18805 State Route 2, Monroe, WA": {
    "latitude": 47.8627619,
    "longitude": -121.9785868,
    "formatted_address": "18805 US-2, Monroe, WA 98272, USA"
  },
  "9575 Central Ave, Montclair, CA": {
    "latitude": 34.079996,
    "longitude": -117.6888586,
    "formatted_address": "9575 Central Ave, Montclair, CA 91763, USA"
  },
  "12200 Perris Blvd, Moreno Valley, CA": {
    "latitude": 33.9439038,
    "longitude": -117.2247448,
    "formatted_address": "12200 Perris Blvd, Moreno Valley, CA 92557, USA"
  },
  "14425 Moreno Beach Dr, Moreno Valley, CA": {
    "latitude": 33.9124718,
    "longitude": -117.1747022,
    "formatted_address": "14425 Moreno Beach Dr, Moreno Valley, CA 92555, USA"
  },
  "24440 Alessandro Blvd, Moreno Valley, CA": {
    "latitude": 33.9196003,
    "longitude": -117.2360115,
    "formatted_address": "24440 Alessandro Blvd, Moreno Valley, CA 92553, USA"
  },
  "11875 Pigeon Pass Rd Ste A, Moreno Valley, CA": {
    "latitude": 33.9470298,
    "longitude": -117.262068,
    "formatted_address": "11875 Pigeon Pass Rd a, Moreno Valley, CA 92557, USA"
  },
  "25900 Iris Ave, Moreno Valley, CA": {
    "latitude": 33.8916389,
    "longitude": -117.2084492,
    "formatted_address": "25900 Iris Ave, Moreno Valley, CA 92551, USA"
  },
  "2601 E Division St, Mount Vernon, WA": {
    "latitude": 48.4222463,
    "longitude": -122.30759,
    "formatted_address": "2601 E Division St, Mount Vernon, WA 98274, USA"
  },
  "315 E College Way, Mount Vernon, WA": {
    "latitude": 48.4376937,
    "longitude": -122.3371446,
    "formatted_address": "315 E College Way, Mount Vernon, WA 98273, USA"
  },
  "22803 44th Ave W, Mountlake Terrace, WA": {
    "latitude": 47.7905144,
    "longitude": -122.2907114,
    "formatted_address": "22803 44th Ave W, Mountlake Terrace, WA 98043, USA"
  },
  "4301 212th St SW, Mountlake Terrace, WA": {
    "latitude": 47.8078229,
    "longitude": -122.2906637,
    "formatted_address": "4301 212th St SW, Mountlake Terrace, WA 98043, USA"
  },
  "11700 Mukilteo Speedway, Mukilteo, WA": {
    "latitude": 47.8919492,
    "longitude": -122.2868942,
    "formatted_address": "11700 Mukilteo Speedway, Mukilteo, WA 98275, USA"
  },
  "1140 North Springbrook Road, Newberg, OR": {
    "latitude": 45.3085141,
    "longitude": -122.9454157,
    "formatted_address": "1140 N Springbrook Rd, Newberg, OR 97132, USA"
  },
  "3300 PORTLAND RD, Newberg, OR": {
    "latitude": 45.30551699999999,
    "longitude": -122.9455368,
    "formatted_address": "3300 Portland Rd, Newberg, OR 97132, USA"
  },
  "6940 Coal Creek Pkwy SE, Newcastle, WA": {
    "latitude": 47.5388036,
    "longitude": -122.1647808,
    "formatted_address": "6940 Coal Creek Pkwy SE, Newcastle, WA 98059, USA"
  },
  "6911 Coal Creek Parkway East, Newcastle, WA": {
    "latitude": 47.5390235,
    "longitude": -122.1687878,
    "formatted_address": "6911 Coal Creek Pkwy SE, Newcastle, WA 98059, USA"
  },
  "2220 N Coast Hwy, Newport, OR": {
    "latitude": 44.6524231,
    "longitude": -124.0519326,
    "formatted_address": "2220 N Coast Hwy, Newport, OR 97365, USA"
  },
  "150 Northeast 20Th Street, Newport, OR": {
    "latitude": 44.6511291,
    "longitude": -124.0511828,
    "formatted_address": "150 NE 20th St, Newport, OR 97365, USA"
  },
  "2790 Hamner Ave, Norco, CA": {
    "latitude": 33.9226431,
    "longitude": -117.5603822,
    "formatted_address": "2790 Hamner Ave, Norco, CA 92860, USA"
  },
  "2430 River Rd, Norco, CA": {
    "latitude": 33.9151809,
    "longitude": -117.5904982,
    "formatted_address": "2430 River Rd, Norco, CA 92860, USA"
  },
  "460 East North Bend Way, North Bend, WA": {
    "latitude": 47.4933079,
    "longitude": -121.7804699,
    "formatted_address": "460 E North Bend Way, North Bend, WA 98045, USA"
  },
  "460 S.W. Mt Si Boulevard, North Bend, WA": {
    "latitude": 47.487357,
    "longitude": -121.7914803,
    "formatted_address": "460 SW Mt Si Blvd, North Bend, WA 98045, USA"
  },
  "1735 Virginia Ave, North Bend, OR": {
    "latitude": 43.40518830000001,
    "longitude": -124.2355303,
    "formatted_address": "1735 Virginia Ave, North Bend, OR 97459, USA"
  },
  "32199 Hwy 20, Oak Harbor, WA": {
    "latitude": 48.2979619,
    "longitude": -122.6569512,
    "formatted_address": "32199 State Rte 20, Oak Harbor, WA 98277, USA"
  },
  "31565 State Route 20, Oak Harbor, WA": {
    "latitude": 48.2895376,
    "longitude": -122.6595114,
    "formatted_address": "31565 State Rte 20, Oak Harbor, WA 98277, USA"
  },
  "1450 SW Erie St, Oak Harbor, WA": {
    "latitude": 48.286568,
    "longitude": -122.661367,
    "formatted_address": "1450 SW Erie St, Oak Harbor, WA 98277, USA"
  },
  "4280 Martin Way E, Olympia, WA": {
    "latitude": 47.0494692,
    "longitude": -122.8291023,
    "formatted_address": "4280 Martin Way E, Olympia, WA 98516, USA"
  },
  "1313 Cooper Point Road SW, Olympia, WA": {
    "latitude": 47.0340248,
    "longitude": -122.9411164,
    "formatted_address": "1313 Cooper Point Rd SW, Olympia, WA 98502, USA"
  },
  "3520 Pacific Ave S E, Olympia, WA": {
    "latitude": 47.0428139,
    "longitude": -122.8458019,
    "formatted_address": "3520 Pacific Ave SE, Olympia, WA 98501, USA"
  },
  "4700 Yelm Highway Southeast, Olympia, WA": {
    "latitude": 46.9976434,
    "longitude": -122.8219595,
    "formatted_address": "4700 Yelm Hwy SE, Olympia, WA 98503, USA"
  },
  "1243 Marvin Road Ne, Olympia, WA": {
    "latitude": 47.05833010000001,
    "longitude": -122.7668975,
    "formatted_address": "1243 Marvin Rd NE, Lacey, WA 98516, USA"
  },
  "3215 Harrison Ave NW, Olympia, WA": {
    "latitude": 47.0455429,
    "longitude": -122.9419815,
    "formatted_address": "3215 Harrison Ave NW, Olympia, WA 98502, USA"
  },
  "2246 S. Euclid Avenue, Ontario, CA": {
    "latitude": 34.0326111,
    "longitude": -117.6528351,
    "formatted_address": "2246 S Euclid Ave, Ontario, CA 91762, USA"
  },
  "3075 S Archibald Ave, Ontario, CA": {
    "latitude": 34.0177203,
    "longitude": -117.5920986,
    "formatted_address": "3075 S Archibald Ave, Ontario, CA 91761, USA"
  },
  "646 W Holt Blvd, Ontario, CA": {
    "latitude": 34.0636633,
    "longitude": -117.6595809,
    "formatted_address": "646 W Holt Blvd, Ontario, CA 91762, USA"
  },
  "1105 W. Philadelphia Street, Ontario, CA": {
    "latitude": 34.0328619,
    "longitude": -117.6694643,
    "formatted_address": "1105 W Philadelphia St, Ontario, CA 91762, USA"
  },
  "3460 E Ontario Ranch Rd, Ontario, CA": {
    "latitude": 33.9991568,
    "longitude": -117.5769867,
    "formatted_address": "3460 Ontario Ranch Rd, Ontario, CA 91761, USA"
  },
  "1939 E 4TH ST, Ontario, CA": {
    "latitude": 34.0785318,
    "longitude": -117.6096528,
    "formatted_address": "1939 E 4th St, Ontario, CA 91764, USA"
  },
  "930 N. Haven Ave, Ontario, CA": {
    "latitude": 34.0755831,
    "longitude": -117.5739018,
    "formatted_address": "930 N Haven Ave, Ontario, CA 91764, USA"
  },
  "19007 South Beavercreek Rd, Oregon City, OR": {
    "latitude": 45.3298513,
    "longitude": -122.5733254,
    "formatted_address": "19007 S Beavercreek Rd, Oregon City, OR 97045, USA"
  },
  "13434 Colton Place, Oregon City, OR": {
    "latitude": 45.3344305,
    "longitude": -122.5912847,
    "formatted_address": "Parking lot, 13434 Colton Pl, Oregon City, OR 97045, USA"
  },
  "1839 Molalla Avenue, Oregon City, OR": {
    "latitude": 45.3324259,
    "longitude": -122.5831665,
    "formatted_address": "1839 Molalla Ave, Oregon City, OR 97045, USA"
  },
  "215 Whitesell St NW, Orting, WA": {
    "latitude": 47.0997906,
    "longitude": -122.2092531,
    "formatted_address": "215 Whitesell St NW, Orting, WA 98360, USA"
  },
  "74884 Country Club Dr, Palm Desert, CA": {
    "latitude": 33.7604272,
    "longitude": -116.357967,
    "formatted_address": "74884 Country Club Dr, Palm Desert, CA 92260, USA"
  },
  "42095 Washington Street, Palm Desert, CA": {
    "latitude": 33.7428456,
    "longitude": -116.3055706,
    "formatted_address": "42095 Washington St, Palm Desert, CA 92211, USA"
  },
  "78210 Varner Rd, Palm Desert, CA": {
    "latitude": 33.7622677,
    "longitude": -116.2994816,
    "formatted_address": "78210 Varner Rd, Palm Desert, CA 92211, USA"
  },
  "74590 Highway 111, Palm Desert, CA": {
    "latitude": 33.7228565,
    "longitude": -116.3638462,
    "formatted_address": "74590 CA-111, Palm Desert, CA 92260, USA"
  },
  "4733 E. Palm Canyon Drive, Palm Springs, CA": {
    "latitude": 33.7922601,
    "longitude": -116.4942542,
    "formatted_address": "4733 E Palm Canyon Dr, Palm Springs, CA 92264, USA"
  },
  "1751 N Sunrise Way Ste 1, Palm Springs, CA": {
    "latitude": 33.8470958,
    "longitude": -116.5296325,
    "formatted_address": "1751 N Sunrise Way Suite #1, Palm Springs, CA 92262, USA"
  },
  "1733 E Palm Canyon Dr, Palm Springs, CA": {
    "latitude": 33.7999896,
    "longitude": -116.5261477,
    "formatted_address": "1733 E Palm Canyon Dr, Palm Springs, CA 92264, USA"
  },
  "1717 E Vista Chino, Palm Springs, CA": {
    "latitude": 33.8443775,
    "longitude": -116.5241182,
    "formatted_address": "1717 E Vista Chino, Palm Springs, CA 92262, USA"
  },
  "425 S Sunrise Way STE A, Palm Springs, CA": {
    "latitude": 33.8171362,
    "longitude": -116.5299014,
    "formatted_address": "425 S Sunrise Way STE A, Palm Springs, CA 92262, USA"
  },
  "13322 Pacific Ave S, Parkland, WA": {
    "latitude": 47.13579559999999,
    "longitude": -122.4361383,
    "formatted_address": "13322 Pacific Ave S, Tacoma, WA 98444, USA"
  },
  "4059 Phelan Road, Phelan, CA": {
    "latitude": 34.4250921,
    "longitude": -117.573748,
    "formatted_address": "4059 Phelan Rd, Phelan, CA 92371, USA"
  },
  "1045 N Garey Ave, Pomona, CA": {
    "latitude": 34.06821,
    "longitude": -117.7533105,
    "formatted_address": "1045 N Garey Ave, Pomona, CA 91767, USA"
  },
  "2090 S. Garey Avenue, Pomona, CA": {
    "latitude": 34.0348379,
    "longitude": -117.7489342,
    "formatted_address": "2090 S Garey Ave, Pomona, CA 91766, USA"
  },
  "114 E Lauridsen Blvd, Port Angeles, WA": {
    "latitude": 48.1067779,
    "longitude": -123.4446756,
    "formatted_address": "114 E Lauridsen Blvd, Port Angeles, WA 98362, USA"
  },
  "2709 E Hwy 101, Port Angeles, WA": {
    "latitude": 48.10602129999999,
    "longitude": -123.3803249,
    "formatted_address": "2709 E Hwy 101, Port Angeles, WA 98362, USA"
  },
  "110 East 3rd Street, Port Angeles, WA": {
    "latitude": 48.1157882,
    "longitude": -123.4347905,
    "formatted_address": "110 E 3rd St, Port Angeles, WA 98362, USA"
  },
  "1890 Irondale Road, Port Hadlock, WA": {
    "latitude": 48.03257980000001,
    "longitude": -122.7585318,
    "formatted_address": "1890 Irondale Rd, Port Hadlock-Irondale, WA 98339, USA"
  },
  "3355 Bethel Rd SE, Port Orchard, WA": {
    "latitude": 47.5184225,
    "longitude": -122.6307421,
    "formatted_address": "Bethel Junction, 3355 Bethel Rd SE, Port Orchard, WA 98366, USA"
  },
  "1434 Olney Ave SE, Port Orchard, WA": {
    "latitude": 47.5357473,
    "longitude": -122.6105256,
    "formatted_address": "1434 Olney Ave SE, Port Orchard, WA 98366, USA"
  },
  "370 S W Sedgwick Rd, Port Orchard, WA": {
    "latitude": 47.4961035,
    "longitude": -122.652118,
    "formatted_address": "370 SW Sedgwick Rd, Port Orchard, WA 98367, USA"
  },
  "1900 SE Sedgwick Rd, Port Orchard, WA": {
    "latitude": 47.5031575,
    "longitude": -122.6292031,
    "formatted_address": "1900 SE Sedgwick Rd, Port Orchard, WA 98366, USA"
  },
  "2611 Sims Way, Port Townsend, WA": {
    "latitude": 48.1085214,
    "longitude": -122.7757861,
    "formatted_address": "2611 E Sims Way, Port Townsend, WA 98368, USA"
  },
  "515 Sheridan St, Port Townsend, WA": {
    "latitude": 48.1037271,
    "longitude": -122.7917384,
    "formatted_address": "515 Sheridan St, Port Townsend, WA 98368, USA"
  },
  "442 W Sims Way, Port Townsend, WA": {
    "latitude": 48.1081113,
    "longitude": -122.7826665,
    "formatted_address": "442 W Sims Way, Port Townsend, WA 98368, USA"
  },
  "18425 NW West Union Rd, Portland, OR": {
    "latitude": 45.5592523,
    "longitude": -122.8663095,
    "formatted_address": "18425 NW West Union Rd, Portland, OR 97229, USA"
  },
  "6411 SE Milwaukie Ave, Portland, OR": {
    "latitude": 45.47608510000001,
    "longitude": -122.649362,
    "formatted_address": "6411 SE Milwaukie Ave, Portland, OR 97202, USA"
  },
  "7525 Southwest Barnes Road, Portland, OR": {
    "latitude": 45.5158368,
    "longitude": -122.7548847,
    "formatted_address": "7525 SW Barnes Rd, Portland, OR 97225, USA"
  },
  "5544 East Burnside, Portland, OR": {
    "latitude": 45.5225519,
    "longitude": -122.6063088,
    "formatted_address": "5544 E Burnside St, Portland, OR 97215, USA"
  },
  "451 NE 181st Ave, Portland, OR": {
    "latitude": 45.5255283,
    "longitude": -122.4790737,
    "formatted_address": "451 NE 181st Ave, Portland, OR 97230, USA"
  },
  "4756 Northwest Bethany Boulevard, Portland, OR": {
    "latitude": 45.5535411,
    "longitude": -122.8350589,
    "formatted_address": "4756 NW Bethany Blvd, Portland, OR 97229, USA"
  },
  "8145 Southwest Barbur Boulevard, Portland, OR": {
    "latitude": 45.46563279999999,
    "longitude": -122.698862,
    "formatted_address": "8145 SW Barbur Blvd, Portland, OR 97219, USA"
  },
  "5850 NE Prescott St, Portland, OR": {
    "latitude": 45.5542823,
    "longitude": -122.6026893,
    "formatted_address": "5850 NE Prescott St, Portland, OR 97218, USA"
  },
  "1010 SW Jefferson St, Portland, OR": {
    "latitude": 45.5159477,
    "longitude": -122.6845282,
    "formatted_address": "Safeway, 1010 SW Jefferson St, Portland, OR 97201, USA"
  },
  "3527 Southeast 122nd Avenue, Portland, OR": {
    "latitude": 45.4962525,
    "longitude": -122.5392796,
    "formatted_address": "3527 SE 122nd Ave, Portland, OR 97236, USA"
  },
  "1303 Northwest Lovejoy Street, Portland, OR": {
    "latitude": 45.5302094,
    "longitude": -122.6847397,
    "formatted_address": "1303 NW Lovejoy St, Portland, OR 97209, USA"
  },
  "2800 SE Hawthorne Blvd, Portland, OR": {
    "latitude": 45.5117408,
    "longitude": -122.6375279,
    "formatted_address": "2800 SE Hawthorne Blvd, Portland, OR 97214, USA"
  },
  "1100 NE Broadway St, Portland, OR": {
    "latitude": 45.5346825,
    "longitude": -122.6541672,
    "formatted_address": "1100 NE Broadway, Portland, OR 97232, USA"
  },
  "5920 NE Martin Luther King Jr Blvd, Portland, OR": {
    "latitude": 45.5659676,
    "longitude": -122.6602189,
    "formatted_address": "5920 NE Martin Luther King Jr Blvd, Portland, OR 97211, USA"
  },
  "3930 Southeast Powell Boulevard, Portland, OR": {
    "latitude": 45.4969871,
    "longitude": -122.6220329,
    "formatted_address": "Safeway #1627, 3930 SE Powell Blvd, Portland, OR 97202, USA"
  },
  "14700 SE Division St, Portland, OR": {
    "latitude": 45.5029065,
    "longitude": -122.5120924,
    "formatted_address": "14700 SE Division St, Portland, OR 97236, USA"
  },
  "6850 N Lombard St, Portland, OR": {
    "latitude": 45.5846643,
    "longitude": -122.7392999,
    "formatted_address": "6850 N Lombard St, Portland, OR 97203, USA"
  },
  "8330 North Ivanhoe Street, Portland, OR": {
    "latitude": 45.5878366,
    "longitude": -122.7531276,
    "formatted_address": "8330 N Ivanhoe St, Portland, OR 97203, USA"
  },
  "13485 Northwest Cornell Road, Portland, OR": {
    "latitude": 45.5279917,
    "longitude": -122.8144749,
    "formatted_address": "13485 NW Cornell Rd, Portland, OR 97229, USA"
  },
  "6615 NE Glisan St, Portland, OR": {
    "latitude": 45.527628,
    "longitude": -122.5960856,
    "formatted_address": "6615 NE Glisan St, Portland, OR 97213, USA"
  },
  "4515 SE Woodstock Blvd, Portland, OR": {
    "latitude": 45.47954,
    "longitude": -122.616288,
    "formatted_address": "4515 SE Woodstock Blvd, Portland, OR 97206, USA"
  },
  "100 Northwest 20Th Place, Portland, OR": {
    "latitude": 45.5241023,
    "longitude": -122.6928082,
    "formatted_address": "100 NW 20th Pl, Portland, OR 97209, USA"
  },
  "6901 NE Sandy Blvd, Portland, OR": {
    "latitude": 45.5480574,
    "longitude": -122.5930312,
    "formatted_address": "6901 NE Sandy Blvd, Portland, OR 97213, USA"
  },
  "3030 NE Weidler St, Portland, OR": {
    "latitude": 45.5329779,
    "longitude": -122.6351061,
    "formatted_address": "3030 NE Weidler St, Portland, OR 97232, USA"
  },
  "7555 SW Barbur Blvd, Portland, OR": {
    "latitude": 45.4705206,
    "longitude": -122.6905387,
    "formatted_address": "7555 SW Barbur Blvd, Portland, OR 97219, USA"
  },
  "3805 SE Hawthorne Blvd, Portland, OR": {
    "latitude": 45.5126133,
    "longitude": -122.623766,
    "formatted_address": "3805 SE Hawthorne Blvd, Portland, OR 97214, USA"
  },
  "7700 SW Beaverton Hillsdale Hwy, Portland, OR": {
    "latitude": 45.485292,
    "longitude": -122.7560504,
    "formatted_address": "7700 SW Beaverton Hillsdale Hwy, Portland, OR 97225, USA"
  },
  "7404 North Interstate Avenue, Portland, OR": {
    "latitude": 45.5758482,
    "longitude": -122.6809888,
    "formatted_address": "7404 N Interstate Ave, Portland, OR 97217, USA"
  },
  "19245 10Th Ave NE, Poulsbo, WA": {
    "latitude": 47.738148,
    "longitude": -122.6368534,
    "formatted_address": "19245 10th Ave NE, Poulsbo, WA 98370, USA"
  },
  "11012 Canyon Rd E, Puyallup, WA": {
    "latitude": 47.1569395,
    "longitude": -122.359116,
    "formatted_address": "11012 Canyon Rd E, Puyallup, WA 98373, USA"
  },
  "611 South Meridian, Puyallup, WA": {
    "latitude": 47.1870135,
    "longitude": -122.2928475,
    "formatted_address": "611 S Meridian, Puyallup, WA 98371, USA"
  },
  "11501 Canyon Rd E, Puyallup, WA": {
    "latitude": 47.1523102,
    "longitude": -122.3566884,
    "formatted_address": "11501 Canyon Rd E, Puyallup, WA 98373, USA"
  },
  "708 Shaw Rd E, Puyallup, WA": {
    "latitude": 47.1848767,
    "longitude": -122.2567848,
    "formatted_address": "708 Shaw Rd E, Puyallup, WA 98372, USA"
  },
  "5616 176Th St. East, Puyallup, WA": {
    "latitude": 47.0950731,
    "longitude": -122.3527862,
    "formatted_address": "5616 176th St E, Puyallup, WA 98375, USA"
  },
  "1100 N Meridian Ave, Puyallup, WA": {
    "latitude": 47.2013162,
    "longitude": -122.2963396,
    "formatted_address": "1100 N Meridian Ave, Puyallup, WA 98371, USA"
  },
  "13308 E Meridian Ave, Puyallup, WA": {
    "latitude": 47.1352732,
    "longitude": -122.2949675,
    "formatted_address": "13308 Meridian E, Puyallup, WA 98373, USA"
  },
  "6351 Haven Avenue, Rancho Cucamonga, CA": {
    "latitude": 34.1387311,
    "longitude": -117.5740727,
    "formatted_address": "6351 Haven Ave, Rancho Cucamonga, CA 91737, USA"
  },
  "11358 Kenyon Way, Rancho Cucamonga, CA": {
    "latitude": 34.1355951,
    "longitude": -117.5571974,
    "formatted_address": "11358 Kenyon Way, Rancho Cucamonga, CA 91701, USA"
  },
  "12201 Highland Avenue, Rancho Cucamonga, CA": {
    "latitude": 34.1350918,
    "longitude": -117.5389953,
    "formatted_address": "12201 Highland Ave, Rancho Cucamonga, CA 91739, USA"
  },
  "7243 Haven Avenue, Rancho Cucamonga, CA": {
    "latitude": 34.1225257,
    "longitude": -117.573339,
    "formatted_address": "7243 Haven Ave, Rancho Cucamonga, CA 91701, USA"
  },
  "12879 Foothill Blvd, Rancho Cucamonga, CA": {
    "latitude": 34.1048835,
    "longitude": -117.5244513,
    "formatted_address": "12879 Foothill Blvd, Rancho Cucamonga, CA 91739, USA"
  },
  "8778 19th St, Rancho Cucamonga, CA": {
    "latitude": 34.1337955,
    "longitude": -117.6145346,
    "formatted_address": "8778 19th St, Rancho Cucamonga, CA 91701, USA"
  },
  "8850 Foothill Blvd, Rancho Cucamonga, CA": {
    "latitude": 34.1082332,
    "longitude": -117.6121392,
    "formatted_address": "8850 Foothill Blvd, Rancho Cucamonga, CA 91730, USA"
  },
  "9750 19th St., Rancho Cucamonga, CA": {
    "latitude": 34.1340755,
    "longitude": -117.5925972,
    "formatted_address": "9750 19th St, Rancho Cucamonga, CA 91737, USA"
  },
  "7200 Day Creek Blvd, Rancho Cucamonga, CA": {
    "latitude": 34.1222824,
    "longitude": -117.5382108,
    "formatted_address": "7200 Day Creek Blvd, Rancho Cucamonga, CA 91739, USA"
  },
  "7369 Milliken Avenue, Rancho Cucamonga, CA": {
    "latitude": 34.1198966,
    "longitude": -117.5570139,
    "formatted_address": "7369 Milliken Ave, Rancho Cucamonga, CA 91730, USA"
  },
  "40101 Monterey Ave., Rancho Mirage, CA": {
    "latitude": 33.7565842,
    "longitude": -116.3924612,
    "formatted_address": "40101 Monterey Ave, Rancho Mirage, CA 92270, USA"
  },
  "2070 W. Redlands Boulevard, Redlands, CA": {
    "latitude": 34.0631623,
    "longitude": -117.2248885,
    "formatted_address": "2070 W Redlands Blvd, Redlands, CA 92373, USA"
  },
  "522 N Orange St, Redlands, CA": {
    "latitude": 34.1409866,
    "longitude": -117.2130885,
    "formatted_address": "N Orange St, San Bernardino, CA 92346, USA"
  },
  "1536 Barton Road, Redlands, CA": {
    "latitude": 34.04829,
    "longitude": -117.207071,
    "formatted_address": "1536 Barton Rd, Redlands, CA 92373, USA"
  },
  "11 E Colton Ave, Redlands, CA": {
    "latitude": 34.0637661,
    "longitude": -117.1818964,
    "formatted_address": "11 E Colton Ave, Redlands, CA 92374, USA"
  },
  "450 E Cypress Ave, Redlands, CA": {
    "latitude": 34.0484751,
    "longitude": -117.1713459,
    "formatted_address": "450 E Cypress Ave, Redlands, CA 92373, USA"
  },
  "1775 E Lugonia Ave, Redlands, CA": {
    "latitude": 34.0715338,
    "longitude": -117.1402624,
    "formatted_address": "1775 E Lugonia Ave, Redlands, CA 92374, USA"
  },
  "23475 Ne Novelity Hill Road, Redmond, WA": {
    "latitude": 47.6987872,
    "longitude": -122.0263063,
    "formatted_address": "23475 NE Novelty Hill Rd, Redmond, WA 98053, USA"
  },
  "3925 236th Ave N E, Redmond, WA": {
    "latitude": 47.6448454,
    "longitude": -122.0249464,
    "formatted_address": "3925 236th Ave NE, Redmond, WA 98053, USA"
  },
  "15800 Redmond Way, Redmond, WA": {
    "latitude": 47.675708,
    "longitude": -122.1289846,
    "formatted_address": "QFC, 15800 Redmond Wy, Redmond, WA 98052, USA"
  },
  "15000 NE 24Th Street, Redmond, WA": {
    "latitude": 47.6324917,
    "longitude": -122.1411565,
    "formatted_address": "15000 NE 24th St, Redmond, WA 98052, USA"
  },
  "17246 Redmond Way, Redmond, WA": {
    "latitude": 47.6720018,
    "longitude": -122.1099958,
    "formatted_address": "17246 Redmond Wy, Redmond, WA 98052, USA"
  },
  "8867 161St Avenue Northeast, Redmond, WA": {
    "latitude": 47.680835,
    "longitude": -122.1261299,
    "formatted_address": "8867 161st Avenue Northeast, Redmond, WA 98052, USA"
  },
  "1705 U.S. 97, Redmond, OR": {
    "latitude": 45.8701698,
    "longitude": -120.759886,
    "formatted_address": "1705 US-97, Goldendale, WA 98620, USA"
  },
  "944 SW Veterans Way, Redmond, OR": {
    "latitude": 44.2672977,
    "longitude": -121.1763065,
    "formatted_address": "944 SW Veterans Way, Redmond, OR 97756, USA"
  },
  "1499 U.S. 101, Reedsport, OR": {
    "latitude": 43.6992549,
    "longitude": -124.1121998,
    "formatted_address": "1499 US-101, Reedsport, OR 97467, USA"
  },
  "3208 NE Sunset Blvd, Renton, WA": {
    "latitude": 47.5050385,
    "longitude": -122.177352,
    "formatted_address": "3208 NE Sunset Blvd, Renton, WA 98056, USA"
  },
  "4621 N. E. Sunset Blvd, Renton, WA": {
    "latitude": 47.5036882,
    "longitude": -122.1573279,
    "formatted_address": "4621 NE Sunset Blvd, Renton, WA 98059, USA"
  },
  "2725 NE Sunset Boulevard, Renton, WA": {
    "latitude": 47.4990618,
    "longitude": -122.1801436,
    "formatted_address": "2725 NE Sunset Blvd, Renton, WA 98056, USA"
  },
  "17230 140th Ave SE, Renton, WA": {
    "latitude": 47.4475109,
    "longitude": -122.1524617,
    "formatted_address": "17230 140th Ave SE, Renton, WA 98058, USA"
  },
  "4800 Northeast 4th Street, Renton, WA": {
    "latitude": 47.4898687,
    "longitude": -122.1549555,
    "formatted_address": "Kroger - Quality Food Stores, 4800 NE 4th St, Renton, WA 98059, USA"
  },
  "365 Renton Center Way SW, Renton, WA": {
    "latitude": 47.4768534,
    "longitude": -122.2179674,
    "formatted_address": "365 Renton Center Way SW, Renton, WA 98057, USA"
  },
  "200 S 3rd St, Renton, WA": {
    "latitude": 47.480382,
    "longitude": -122.2139666,
    "formatted_address": "200 S 3rd St, Renton, WA 98057, USA"
  },
  "4300 NE 4th St, Renton, WA": {
    "latitude": 47.4894759,
    "longitude": -122.1613856,
    "formatted_address": "4300 NE 4th St, Renton, WA 98059, USA"
  },
  "17801 108th Ave SE, Renton, WA": {
    "latitude": 47.4437278,
    "longitude": -122.1975048,
    "formatted_address": "17801 108th Ave SE, Renton, WA 98055, USA"
  },
  "1410 W. Foothill Boulevard, Rialto, CA": {
    "latitude": 34.1080474,
    "longitude": -117.3992403,
    "formatted_address": "Renaisance Shopping Center, 1410 W Foothill Blvd, Rialto, CA 92376, USA"
  },
  "571 E Foothill Blvd, Rialto, CA": {
    "latitude": 34.1054945,
    "longitude": -117.3604769,
    "formatted_address": "571 E Foothill Blvd, Rialto, CA 92376, USA"
  },
  "168 East Baseline Rd., Rialto, CA": {
    "latitude": 34.1226372,
    "longitude": -117.3692621,
    "formatted_address": "168 E Baseline Rd, Rialto, CA 92376, USA"
  },
  "101 S. 47th Avenue, Ridgefield, WA": {
    "latitude": 45.8154128,
    "longitude": -122.7006433,
    "formatted_address": "101 S 47th Ave, Ridgefield, WA 98642, USA"
  },
  "3350 La Sierra Ave, Riverside, CA": {
    "latitude": 33.8953548,
    "longitude": -117.4715137,
    "formatted_address": "3350 La Sierra Ave, Riverside, CA 92503, USA"
  },
  "4250 Van Buren Boulevard, Riverside, CA": {
    "latitude": 33.9275783,
    "longitude": -117.4534146,
    "formatted_address": "4250 Van Buren Boulevard, Riverside, CA 92503, USA"
  },
  "5571 Mission Blvd, Riverside, CA": {
    "latitude": 33.9976,
    "longitude": -117.4055851,
    "formatted_address": "5571 Mission Blvd, Jurupa Valley, CA 92509, USA"
  },
  "3420 La Sierra Avenue, Riverside, CA": {
    "latitude": 33.89752259999999,
    "longitude": -117.4731247,
    "formatted_address": "3420 La Sierra Ave, Riverside, CA 92503, USA"
  },
  "9225 Magnolia Ave, Riverside, CA": {
    "latitude": 33.9238906,
    "longitude": -117.4419652,
    "formatted_address": "9225 Magnolia Ave, Riverside, CA 92503, USA"
  },
  "6160 Arlington Avenue, Riverside, CA": {
    "latitude": 33.9456064,
    "longitude": -117.4367877,
    "formatted_address": "6160 Arlington Ave, Riverside, CA 92504, USA"
  },
  "9155 Jurupa Road, Riverside, CA": {
    "latitude": 33.9985258,
    "longitude": -117.4830497,
    "formatted_address": "9155 Jurupa Rd, Riverside, CA 92509, USA"
  },
  "7770 Limonite Avenue, Riverside, CA": {
    "latitude": 33.9774128,
    "longitude": -117.4523958,
    "formatted_address": "7770 Limonite Ave, Riverside, CA 92509, USA"
  },
  "6155 Magnolia Avenue, Riverside, CA": {
    "latitude": 33.9590894,
    "longitude": -117.3944122,
    "formatted_address": "6155 Magnolia Ave, Riverside, CA 92506, USA"
  },
  "5225 Canyon Crest, Riverside, CA": {
    "latitude": 33.9550257,
    "longitude": -117.3326217,
    "formatted_address": "5225 Canyon Crest Dr, Riverside, CA 92507, USA"
  },
  "3900 Chicago Avenue, Riverside, CA": {
    "latitude": 33.9733428,
    "longitude": -117.3466075,
    "formatted_address": "3900 Chicago Ave, Riverside, CA 92507, USA"
  },
  "17050 Van Buren Blvd., Riverside, CA": {
    "latitude": 33.8834373,
    "longitude": -117.3649747,
    "formatted_address": "Woodcrest Plaza Shopping Center, 17050 Van Buren Boulevard, Riverside, CA 92504, USA"
  },
  "3520 RIVERSIDE PLAZA DR, Riverside, CA": {
    "latitude": 33.9548985,
    "longitude": -117.38951,
    "formatted_address": "3520 Riverside Plaza Dr, Riverside, CA 92506, USA"
  },
  "2975 Van Buren Blvd, Riverside, CA": {
    "latitude": 33.9094112,
    "longitude": -117.4361834,
    "formatted_address": "2975 Van Buren Boulevard, Riverside, CA 92503, USA"
  },
  "7200 Arlington Ave #102, Riverside, CA": {
    "latitude": 33.944721,
    "longitude": -117.4517365,
    "formatted_address": "7200 Arlington Ave #102, Riverside, CA 92503, USA"
  },
  "4680 La Sierra Ave, Riverside, CA": {
    "latitude": 33.9162227,
    "longitude": -117.4877085,
    "formatted_address": "4680 La Sierra Ave, Riverside, CA 92505, USA"
  },
  "2841 Mary St, Riverside, CA": {
    "latitude": 33.9341903,
    "longitude": -117.386343,
    "formatted_address": "2841 Mary St, Riverside, CA 92506, USA"
  },
  "2995 Iowa Avenue, Riverside, CA": {
    "latitude": 33.9857616,
    "longitude": -117.3414548,
    "formatted_address": "2995 Iowa Ave, Riverside, CA 92507, USA"
  },
  "8938 Trautwein Rd, Riverside, CA": {
    "latitude": 33.8903374,
    "longitude": -117.3229072,
    "formatted_address": "8938 Trautwein Rd, Riverside, CA 92508, USA"
  },
  "315 E. Alessandro Blvd, Riverside, CA": {
    "latitude": 33.9131156,
    "longitude": -117.3259424,
    "formatted_address": "315 E Alessandro Blvd, Riverside, CA 92508, USA"
  },
  "2553 NW Stewart Parkway, Roseburg, OR": {
    "latitude": 43.2380375,
    "longitude": -123.3676025,
    "formatted_address": "2553 NW Stewart Pkwy, Roseburg, OR 97471, USA"
  },
  "1539 NE Stephens St., Roseburg, OR": {
    "latitude": 43.2294158,
    "longitude": -123.3496114,
    "formatted_address": "1539 NE Stephens St, Roseburg, OR 97470, USA"
  },
  "929 NW Garden Valley Blvd, Roseburg, OR": {
    "latitude": 43.2266983,
    "longitude": -123.3698611,
    "formatted_address": "929 NW Garden Valley Blvd, Roseburg, OR 97471, USA"
  },
  "3380 Lancaster Drive Northeast, Salem, OR": {
    "latitude": 44.968839,
    "longitude": -122.982217,
    "formatted_address": "3380 Lancaster Dr NE, Salem, OR 97303, USA"
  },
  "1265 Center Street Northeast, Salem, OR": {
    "latitude": 44.940822,
    "longitude": -123.0242449,
    "formatted_address": "1265 Center St NE, Salem, OR 97301, USA"
  },
  "1455 Edgewater St NW, Salem, OR": {
    "latitude": 44.9392282,
    "longitude": -123.0637467,
    "formatted_address": "1455 Edgewater St NW, Salem, OR 97304, USA"
  },
  "5660 Commercial St SE, Salem, OR": {
    "latitude": 44.8728876,
    "longitude": -123.0220891,
    "formatted_address": "5660 Commercial St SE, Salem, OR 97306, USA"
  },
  "2855 Broadway St NE, Salem, OR": {
    "latitude": 44.9684619,
    "longitude": -123.0305762,
    "formatted_address": "2855 Broadway St NE, Salem, OR 97303, USA"
  },
  "3450 Commercial St SE, Salem, OR": {
    "latitude": 44.9056642,
    "longitude": -123.0409142,
    "formatted_address": "3450 Commercial St SE, Salem, OR 97302, USA"
  },
  "3740 Market St NE, Salem, OR": {
    "latitude": 44.9498568,
    "longitude": -122.9866459,
    "formatted_address": "3740 Market St NE, Salem, OR 97301, USA"
  },
  "2902 228Th Avenue Se, Sammamish, WA": {
    "latitude": 47.5826694,
    "longitude": -122.0335541,
    "formatted_address": "2902 228th Ave SE, Sammamish, WA 98075, USA"
  },
  "4570 Klahanie Drive Se, SAMMAMISH, WA": {
    "latitude": 47.5656509,
    "longitude": -122.0034948,
    "formatted_address": "4570 Klahanie Dr. SE, Issaquah, WA 98029, USA"
  },
  "630 228Th Avenue N E, Sammamish, WA": {
    "latitude": 47.6153679,
    "longitude": -122.0335183,
    "formatted_address": "630 228th Ave NE, Sammamish, WA 98074, USA"
  },
  "555 W 2nd St Ste A, San Bernardino, CA": {
    "latitude": 34.1013253,
    "longitude": -117.295074,
    "formatted_address": "555 W 2nd St A, San Bernardino, CA 92401, USA"
  },
  "444 E Baseline St, San Bernardino, CA": {
    "latitude": 34.12219839999999,
    "longitude": -117.2757864,
    "formatted_address": "444 E Baseline St, San Bernardino, CA 92410, USA"
  },
  "4444 University Parkway, San Bernardino, CA": {
    "latitude": 34.1697827,
    "longitude": -117.3339189,
    "formatted_address": "4444 University Pkwy, San Bernardino, CA 92407, USA"
  },
  "1085 W Highland Avenue, San Bernardino, CA": {
    "latitude": 34.1349869,
    "longitude": -117.3081639,
    "formatted_address": "1085 W Highland Ave, San Bernardino, CA 92405, USA"
  },
  "1522 E Highland Ave, San Bernardino, CA": {
    "latitude": 34.1368811,
    "longitude": -117.2541087,
    "formatted_address": "1522 E Highland Ave, San Bernardino, CA 92404, USA"
  },
  "977 Kendall Dr, San Bernardino, CA": {
    "latitude": 34.163124,
    "longitude": -117.304717,
    "formatted_address": "977 Kendall Dr, San Bernardino, CA 92407, USA"
  },
  "161 E 40th St, San Bernardino, CA": {
    "latitude": 34.1637815,
    "longitude": -117.282775,
    "formatted_address": "161 E 40th St, San Bernardino, CA 92404, USA"
  },
  "37601 U.S. 26, Sandy, OR": {
    "latitude": 45.40127589999999,
    "longitude": -122.2769154,
    "formatted_address": "37601 US-26, Sandy, OR 97055, USA"
  },
  "16625 362nd Avenue, Sandy, OR": {
    "latitude": 45.4029848,
    "longitude": -122.2927508,
    "formatted_address": "16625 362nd Ave, Sandy, OR 97055, USA"
  },
  "51501 South Columbia River, Scappoose, OR": {
    "latitude": 45.8538477,
    "longitude": -122.8263528,
    "formatted_address": "S Columbia River Hwy, St Helens, OR 97051, USA"
  },
  "401 South Roosevelt, Seaside, OR": {
    "latitude": 45.9908434,
    "longitude": -123.9200603,
    "formatted_address": "401 S Roosevelt Dr, Seaside, OR 97138, USA"
  },
  "2550 32nd Ave W, Seattle, WA": {
    "latitude": 47.6424716,
    "longitude": -122.3979475,
    "formatted_address": "2550 32nd Ave W, Seattle, WA 98199, USA"
  },
  "4550 42nd Avenue Southwest, Seattle, WA": {
    "latitude": 47.5613012,
    "longitude": -122.3850988,
    "formatted_address": "4550 42nd Ave SW, Seattle, WA 98116, USA"
  },
  "3900 South Othello Street, Seattle, WA": {
    "latitude": 47.53747329999999,
    "longitude": -122.2830534,
    "formatted_address": "3900 S Othello St, Seattle, WA 98118, USA"
  },
  "2500 SW Barton, Seattle, WA": {
    "latitude": 47.5222371,
    "longitude": -122.3662837,
    "formatted_address": "2500 SW Barton St, Seattle, WA 98126, USA"
  },
  "2707 Rainier Avenue South, Seattle, WA": {
    "latitude": 47.5787195,
    "longitude": -122.2988799,
    "formatted_address": "Parking lot, 2707 Rainier Ave S, Seattle, WA 98144, USA"
  },
  "9999 Holman Road Northwest, Seattle, WA": {
    "latitude": 47.70179900000001,
    "longitude": -122.3639318,
    "formatted_address": "9999 Holman Rd NW, Seattle, WA 98117, USA"
  },
  "4754 42nd Avenue SW, Seattle, WA": {
    "latitude": 47.559553,
    "longitude": -122.3848967,
    "formatted_address": "4754 42nd Ave SW, Seattle, WA 98116, USA"
  },
  "516 1st Avenue West, Seattle, WA": {
    "latitude": 47.6241305,
    "longitude": -122.3575598,
    "formatted_address": "516 1st Ave W, Seattle, WA 98119, USA"
  },
  "5700 24th Ave NW, Seattle, WA": {
    "latitude": 47.67061229999999,
    "longitude": -122.3866649,
    "formatted_address": "5700 24th Ave NW, Seattle, WA 98107, USA"
  },
  "17847 First Avenue South, Seattle, WA": {
    "latitude": 47.4418811,
    "longitude": -122.3350849,
    "formatted_address": "Parking lot, 17847 1st Ave S, Normandy Park, WA 98148, USA"
  },
  "500 Mercer Street, Seattle, WA": {
    "latitude": 47.624798,
    "longitude": -122.347142,
    "formatted_address": "500 Mercer St, Seattle, WA 98109, USA"
  },
  "2100 Queen Anne Avenue N, Seattle, WA": {
    "latitude": 47.6376954,
    "longitude": -122.3561025,
    "formatted_address": "2100 Queen Anne Ave N, Seattle, WA 98109, USA"
  },
  "7340 35th Avenue Northeast, Seattle, WA": {
    "latitude": 47.6825128,
    "longitude": -122.2893391,
    "formatted_address": "7340 35th Ave NE, Seattle, WA 98115, USA"
  },
  "10616 16th Ave SW, Seattle, WA": {
    "latitude": 47.5080015,
    "longitude": -122.3542423,
    "formatted_address": "10616 16th Ave SW, Seattle, WA 98146, USA"
  },
  "2746 Ne 45Th Street, Seattle, WA": {
    "latitude": 47.66171869999999,
    "longitude": -122.2958692,
    "formatted_address": "2746 NE 45th St, Seattle, WA 98105, USA"
  },
  "11100 Roosevelt Way Ne, Seattle, WA": {
    "latitude": 47.709396,
    "longitude": -122.3172526,
    "formatted_address": "11100 Roosevelt Way NE, Seattle, WA 98125, USA"
  },
  "1600 West Dravus, Seattle, WA": {
    "latitude": 47.6496262,
    "longitude": -122.3779145,
    "formatted_address": "1600 W Dravus St, Seattle, WA 98119, USA"
  },
  "1531 Ne 145Th Street, Seattle, WA": {
    "latitude": 47.7328327,
    "longitude": -122.3112113,
    "formatted_address": "Parking lot, 1531 NE 145th St, Seattle, WA 98155, USA"
  },
  "1801 N 45th St, Seattle, WA": {
    "latitude": 47.6617313,
    "longitude": -122.3358685,
    "formatted_address": "1801 N 45th St, Seattle, WA 98103, USA"
  },
  "417 Broadway East, Seattle, WA": {
    "latitude": 47.6225306,
    "longitude": -122.3214759,
    "formatted_address": "417 Broadway E, Seattle, WA 98102, USA"
  },
  "4011 S 164th St, Seattle, WA": {
    "latitude": 47.455652,
    "longitude": -122.2824069,
    "formatted_address": "4011 S 164th St, Seattle, WA 98188, USA"
  },
  "1423 Nw Market Street, Seattle, WA": {
    "latitude": 47.6682171,
    "longitude": -122.3746951,
    "formatted_address": "1423 NW Market St, Seattle, WA 98107, USA"
  },
  "3820 Rainier Avenue South, Seattle, WA": {
    "latitude": 47.5692183,
    "longitude": -122.288302,
    "formatted_address": "3820 Rainier Ave S, Seattle, WA 98118, USA"
  },
  "1401 Broadway Ave, Seattle, WA": {
    "latitude": 47.6139196,
    "longitude": -122.3210437,
    "formatted_address": "1401 Broadway, Seattle, WA 98122, USA"
  },
  "12318 15Th Avenue Northeast, Seattle, WA": {
    "latitude": 47.7180964,
    "longitude": -122.3119605,
    "formatted_address": "12318 15th Ave NE, Seattle, WA 98125, USA"
  },
  "2622 California Avenue West, Seattle, WA": {
    "latitude": 47.5801124,
    "longitude": -122.3858962,
    "formatted_address": "2622 California Ave SW, Seattle, WA 98116, USA"
  },
  "2201 East Madison Street, Seattle, WA": {
    "latitude": 47.6178326,
    "longitude": -122.3033646,
    "formatted_address": "2201 E Madison St, Seattle, WA 98122, USA"
  },
  "7300 Roosevelt Way NE, Seattle, WA": {
    "latitude": 47.681857,
    "longitude": -122.3170171,
    "formatted_address": "7300 Roosevelt Way NE, Seattle, WA 98115, USA"
  },
  "9262 Rainier Avenue South, Seattle, WA": {
    "latitude": 47.5199565,
    "longitude": -122.267937,
    "formatted_address": "Parking lot, 9262 Rainier Ave S, Seattle, WA 98118, USA"
  },
  "1410 East John Street, Seattle, WA": {
    "latitude": 47.6204958,
    "longitude": -122.3132555,
    "formatted_address": "1410 E John St, Seattle, WA 98112, USA"
  },
  "4732 Brooklyn Ave NE, Seattle, WA": {
    "latitude": 47.6642917,
    "longitude": -122.3140022,
    "formatted_address": "4732 Brooklyn Ave NE, Seattle, WA 98105, USA"
  },
  "8340 15Th Avenue Nw, Seattle, WA": {
    "latitude": 47.6897533,
    "longitude": -122.3768015,
    "formatted_address": "8340 15th Ave NW, Seattle, WA 98117, USA"
  },
  "9620 28Th Ave SW, Seattle, WA": {
    "latitude": 47.5168991,
    "longitude": -122.3674862,
    "formatted_address": "9620 28th Ave SW, Seattle, WA 98126, USA"
  },
  "915 Northwest 45Th Street, Seattle, WA": {
    "latitude": 47.6598323,
    "longitude": -122.3686721,
    "formatted_address": "915 NW 45th St, Seattle, WA 98107, USA"
  },
  "100 Northwest  85Th Street, Seattle, WA": {
    "latitude": 47.6919776,
    "longitude": -122.3591754,
    "formatted_address": "100 NW 85th St, Seattle, WA 98117, USA"
  },
  "530 Crossroads Square, Sedro Woolley, WA": {
    "latitude": 48.505255,
    "longitude": -122.2489381,
    "formatted_address": "530 Crossroads Square, Sedro-Woolley, WA 98284, USA"
  },
  "990 East Washington Street, Sequim, WA": {
    "latitude": 48.0781295,
    "longitude": -123.0874822,
    "formatted_address": "990 E Washington St, Sequim, WA 98382, USA"
  },
  "680 W Washington St, Sequim, WA": {
    "latitude": 48.08099670000001,
    "longitude": -123.116975,
    "formatted_address": "680 W Washington St, Sequim, WA 98382, USA"
  },
  "301 E Wallace Kneeland Blvd, Shelton, WA": {
    "latitude": 47.2312063,
    "longitude": -123.1242403,
    "formatted_address": "301 E Wallace Kneeland Blvd, Shelton, WA 98584, USA"
  },
  "600 W Franklin St, Shelton, WA": {
    "latitude": 47.2146426,
    "longitude": -123.1065143,
    "formatted_address": "600 W Franklin St, Shelton, WA 98584, USA"
  },
  "20685 SW Roy Rogers Road, Sherwood, OR": {
    "latitude": 45.3695377,
    "longitude": -122.8452069,
    "formatted_address": "20685 SW Roy Rogers Rd, Sherwood, OR 97140, USA"
  },
  "600 NW Richmond Beach Rd, Shoreline, WA": {
    "latitude": 47.765625,
    "longitude": -122.3657242,
    "formatted_address": "600 NW Richmond Beach Rd, Shoreline, WA 98177, USA"
  },
  "17202 15Th Avenue N E, Shoreline, WA": {
    "latitude": 47.754341,
    "longitude": -122.3127888,
    "formatted_address": "17202 15th Ave NE, Shoreline, WA 98155, USA"
  },
  "15332 Aurora Ave N., Shoreline, WA": {
    "latitude": 47.74090210000001,
    "longitude": -122.3436341,
    "formatted_address": "15332 Aurora Ave N, Shoreline, WA 98133, USA"
  },
  "18325 Aurora Avenue North, Shoreline, WA": {
    "latitude": 47.7620769,
    "longitude": -122.3477322,
    "formatted_address": "18325 Aurora Ave N, Shoreline, WA 98133, USA"
  },
  "2890 Nw Bucklin Hill Road, Silverdale, WA": {
    "latitude": 47.652686,
    "longitude": -122.6882151,
    "formatted_address": "2890 NW Bucklin Hill Rd, Silverdale, WA 98383, USA"
  },
  "301 Westfield Street, Silverton, OR": {
    "latitude": 45.00324450000001,
    "longitude": -122.7939568,
    "formatted_address": "301 Westfield St, Silverton, OR 97381, USA"
  },
  "1119 13TH St., Snohomish, WA": {
    "latitude": 47.9264177,
    "longitude": -122.0956164,
    "formatted_address": "1119 13th St, Snohomish, WA 98290, USA"
  },
  "17520 SR 9 SE, Snohomish, WA": {
    "latitude": 47.8389424,
    "longitude": -122.1253257,
    "formatted_address": "17520 WA-9, Snohomish, WA 98296, USA"
  },
  "1301 Ave D, Snohomish, WA": {
    "latitude": 47.92772739999999,
    "longitude": -122.0963967,
    "formatted_address": "1301 Ave D, Snohomish, WA 98290, USA"
  },
  "2801 Bickford Avenue, Snohomish, WA": {
    "latitude": 47.943812,
    "longitude": -122.1052239,
    "formatted_address": "2801 Bickford Ave, Snohomish, WA 98290, USA"
  },
  "34828 SE Douglas St., Snoqualmie, WA": {
    "latitude": 47.5278305,
    "longitude": -121.8737651,
    "formatted_address": "34828 SE Douglas St, Snoqualmie, WA 98065, USA"
  },
  "17404 Meridian E, South Hill, WA": {
    "latitude": 47.0986853,
    "longitude": -122.2967551,
    "formatted_address": "17404 Meridian E, Puyallup, WA 98375, USA"
  },
  "22303 Mountain Highway East, Spanaway, WA": {
    "latitude": 47.0552925,
    "longitude": -122.3971279,
    "formatted_address": "22303 Mountain Hwy E, Spanaway, WA 98387, USA"
  },
  "2000 Marcola Rd., Springfield, OR": {
    "latitude": 44.0656901,
    "longitude": -122.9949774,
    "formatted_address": "2000 Marcola Rd, Springfield, OR 97477, USA"
  },
  "1891 Pioneer Parkway East, Springfield, OR": {
    "latitude": 44.0634329,
    "longitude": -123.0240309,
    "formatted_address": "1891 Pioneer Pkwy E, Springfield, OR 97477, USA"
  },
  "650 Q Street, Springfield, OR": {
    "latitude": 44.0634568,
    "longitude": -123.0177884,
    "formatted_address": "650 Q St, Springfield, OR 97477, USA"
  },
  "5755 Main St, Springfield, OR": {
    "latitude": 44.0441997,
    "longitude": -122.9272921,
    "formatted_address": "5755 Main St, Springfield, OR 97478, USA"
  },
  "795 Columbia River Highway, St. Helens, OR": {
    "latitude": 45.8497242,
    "longitude": -122.8321553,
    "formatted_address": "795 S Columbia River Hwy, St Helens, OR 97051, USA"
  },
  "26603 72nd Avenue NW, Stanwood, WA": {
    "latitude": 48.23782930000001,
    "longitude": -122.3288067,
    "formatted_address": "26603 72nd Ave NW, Stanwood, WA 98292, USA"
  },
  "27008 92ND Avenue NW, Stanwood, WA": {
    "latitude": 48.240793,
    "longitude": -122.3578484,
    "formatted_address": "27008 92nd Ave NW, Stanwood, WA 98292, USA"
  },
  "1535 North 1St Street, Stayton, OR": {
    "latitude": 44.80575,
    "longitude": -122.7960352,
    "formatted_address": "1535 N First Ave, Stayton, OR 97383, USA"
  },
  "21301 Washington 410, Sumner, WA": {
    "latitude": 47.1666692,
    "longitude": -122.1464274,
    "formatted_address": "21301 WA-410, Sumner, WA 98390, USA"
  },
  "1201 Valley Ave, Sumner, WA": {
    "latitude": 47.2036999,
    "longitude": -122.2282226,
    "formatted_address": "1201 Valley Ave, Sumner, WA 98390, USA"
  },
  "1540 Main Street, Sweet Home, OR": {
    "latitude": 44.3997118,
    "longitude": -122.7256982,
    "formatted_address": "1540 Main St, Sweet Home, OR 97386, USA"
  },
  "11104 Pacific Ave S, Tacoma, WA": {
    "latitude": 47.1563269,
    "longitude": -122.4361649,
    "formatted_address": "11104 Pacific Ave S, Tacoma, WA 98444, USA"
  },
  "1112 South M Street, Tacoma, WA": {
    "latitude": 47.2511533,
    "longitude": -122.4553215,
    "formatted_address": "1112 S M St, Tacoma, WA 98405, USA"
  },
  "4101 49th Ave NE, Tacoma, WA": {
    "latitude": 47.2938658,
    "longitude": -122.3816369,
    "formatted_address": "4101 49th Ave NE, Tacoma, WA 98422, USA"
  },
  "104 Military Rd S, Tacoma, WA": {
    "latitude": 47.1173458,
    "longitude": -122.4327496,
    "formatted_address": "104 Military Rd S, Tacoma, WA 98444, USA"
  },
  "1302 S 38th St, Tacoma, WA": {
    "latitude": 47.2221627,
    "longitude": -122.4515058,
    "formatted_address": "1302 S 38th St, Tacoma, WA 98418, USA"
  },
  "707 South 56Th Street, Tacoma, WA": {
    "latitude": 47.2067822,
    "longitude": -122.4409719,
    "formatted_address": "707 S 56th St, Tacoma, WA 98408, USA"
  },
  "2411 N PROCTOR ST, Tacoma, WA": {
    "latitude": 47.26951280000001,
    "longitude": -122.4880961,
    "formatted_address": "2411 N Proctor St, Tacoma, WA 98406, USA"
  },
  "15805 Pacific Ave S, Tacoma, WA": {
    "latitude": 47.1129786,
    "longitude": -122.4322969,
    "formatted_address": "15805 Pacific Ave S, Tacoma, WA 98444, USA"
  },
  "3842 Bridgeport Way West, Tacoma, WA": {
    "latitude": 47.2216712,
    "longitude": -122.5393458,
    "formatted_address": "3842 Bridgeport Way W, Tacoma, WA 98466, USA"
  },
  "6901 S 19th St, Tacoma, WA": {
    "latitude": 47.24425400000001,
    "longitude": -122.5290996,
    "formatted_address": "6901 S 19th St, Tacoma, WA 98466, USA"
  },
  "4505 S 19th St, Tacoma, WA": {
    "latitude": 47.2436626,
    "longitude": -122.4977266,
    "formatted_address": "4505 S 19th St, Tacoma, WA 98405, USA"
  },
  "1624 72nd St E, Tacoma, WA": {
    "latitude": 47.1900148,
    "longitude": -122.4071017,
    "formatted_address": "1624 72nd St E, Tacoma, WA 98404, USA"
  },
  "2637 North Pearl Street, Tacoma, WA": {
    "latitude": 47.2727071,
    "longitude": -122.5137634,
    "formatted_address": "2637 N Pearl St, Tacoma, WA 98407, USA"
  },
  "520 Mount Hood Street, The Dalles, OR": {
    "latitude": 45.60420149999999,
    "longitude": -121.1940522,
    "formatted_address": "520 Mt Hood St, The Dalles, OR 97058, USA"
  },
  "1215 W 6Th St, The Dalles, OR": {
    "latitude": 45.6068976,
    "longitude": -121.1994061,
    "formatted_address": "1215 W 6th St, The Dalles, OR 97058, USA"
  },
  "14300 SW Barrows Rd, Tigard, OR": {
    "latitude": 45.4312554,
    "longitude": -122.8238425,
    "formatted_address": "14300 SW Barrows Rd, Tigard, OR 97223, USA"
  },
  "11565 SW Pacific Hwy, Tigard, OR": {
    "latitude": 45.4411241,
    "longitude": -122.7521191,
    "formatted_address": "11565 SW Pacific Hwy, Tigard, OR 97223, USA"
  },
  "1815 4Th Street, Tillamook, OR": {
    "latitude": 45.455203,
    "longitude": -123.8455034,
    "formatted_address": "1815 4th St, Tillamook, OR 97141, USA"
  },
  "2500 North Main Street, Tillamook, OR": {
    "latitude": 45.47366539999999,
    "longitude": -123.8447892,
    "formatted_address": "2500 N Main Ave, Tillamook, OR 97141, USA"
  },
  "25691 SE Stark St, Troutdale, OR": {
    "latitude": 45.5202018,
    "longitude": -122.4002806,
    "formatted_address": "25691 SE Stark St, Troutdale, OR 97060, USA"
  },